City,Latitude,Longitude,Max Temperature,Humidity,Cloudiness,Wind Speed,Country,Date
Port Elizabeth,-33.918,25.5701,66.2,88,20,13.8,ZA,2021-03-12 03:03:14
Sitka,57.0531,-135.33,35.6,64,90,6.69,US,2021-03-12 03:03:16
Hilo,19.7297,-155.09,75.2,83,90,9.22,US,2021-03-12 03:03:17
Celestún,20.8667,-90.4,76.69,73,3,17.6,MX,2021-03-12 03:03:18
Butaritari,3.0707,172.7902,81.91,74,0,13.24,KI,2021-03-12 03:03:19
Rikitea,-23.1203,-134.9692,79.3,80,9,13.02,PF,2021-03-12 03:03:21
Lata,40.1629,-8.3327,54.0,92,99,5.99,PT,2021-03-12 03:03:22
Ilulissat,69.2167,-51.1,12.2,48,1,10.36,GL,2021-03-12 03:03:23
Bucerías,20.75,-105.3333,73.0,88,20,2.3,MX,2021-03-12 02:58:31
Carnarvon,-24.8667,113.6333,86.0,42,0,18.41,AU,2021-03-12 03:03:25
Vaini,-21.2,-175.2,82.4,74,40,6.91,TO,2021-03-12 03:03:27
Castro,-24.7911,-50.0119,61.21,76,0,3.67,BR,2021-03-12 03:01:17
Iqaluit,63.7506,-68.5145,-14.01,76,75,3.44,CA,2021-03-12 03:00:13
Tuktoyaktuk,69.4541,-133.0374,1.4,85,90,17.27,CA,2021-03-12 03:03:30
Brasiléia,-11.0161,-68.7481,72.54,94,10,2.15,BR,2021-03-12 03:03:31
Bredasdorp,-34.5322,20.0403,64.4,88,98,8.05,ZA,2021-03-12 03:03:32
Thompson,55.7435,-97.8558,-11.2,70,1,4.05,CA,2021-03-12 03:03:34
Gravelbourg,49.8834,-106.5512,14.81,73,3,7.74,CA,2021-03-12 03:03:35
Hobart,-42.8794,147.3294,75.2,57,75,8.05,AU,2021-03-12 02:58:40
Cherskiy,68.75,161.3,-3.03,80,74,5.79,RU,2021-03-12 03:03:37
Ormara,25.2088,64.6357,72.63,79,0,3.51,PK,2021-03-12 03:03:38
Alice Springs,-23.7,133.8833,91.4,38,69,5.75,AU,2021-03-12 03:03:40
Mangla,31.8931,72.3817,66.36,55,100,9.33,PK,2021-03-12 03:00:13
Anadyr,64.75,177.4833,-7.6,77,40,4.47,RU,2021-03-12 03:03:42
Ushuaia,-54.8,-68.3,41.0,87,40,14.97,AR,2021-03-12 02:59:26
Vung Tau,10.346,107.0843,83.55,62,95,11.63,VN,2021-03-12 03:03:44
Mataura,-46.1927,168.8643,64.99,63,0,8.99,NZ,2021-03-12 03:03:45
Itarema,-2.9248,-39.9167,78.76,82,100,10.8,BR,2021-03-12 03:03:47
Mthatha,-31.5889,28.7844,60.57,97,91,6.26,ZA,2021-03-12 03:00:15
Kapaa,22.0752,-159.319,78.01,83,40,11.5,US,2021-03-12 03:03:51
Qaanaaq,77.484,-69.3632,0.93,62,50,4.03,GL,2021-03-12 03:03:53
Saint-Philippe,-21.3585,55.7679,75.2,64,0,6.91,RE,2021-03-12 03:03:56
Comodoro Rivadavia,-45.8667,-67.5,64.4,42,0,24.16,AR,2021-03-12 03:03:57
Vaitape,-16.5167,-151.75,83.14,72,72,8.46,PF,2021-03-12 03:03:59
Luganville,-15.5333,167.1667,83.44,75,25,11.1,VU,2021-03-12 03:04:00
Tecpan,14.7623,-90.9947,64.4,72,0,16.11,GT,2021-03-12 03:04:02
Cidreira,-30.1811,-50.2056,70.12,78,56,0.47,BR,2021-03-12 03:04:03
Port Alfred,-33.5906,26.891,66.0,88,97,3.0,ZA,2021-03-12 03:04:04
Katsuura,35.1333,140.3,63.0,58,75,4.61,JP,2021-03-12 03:04:05
Albany,42.6001,-73.9662,60.8,41,75,11.5,US,2021-03-12 03:00:09
College,64.8569,-147.8028,-2.99,54,75,4.61,US,2021-03-12 03:04:08
Ponta do Sol,32.6667,-17.1,55.0,65,26,3.0,PT,2021-03-12 03:04:09
Vardø,70.3705,31.1107,21.54,83,81,37.87,NO,2021-03-12 03:04:10
Batagay,67.6333,134.6333,-4.65,77,0,3.96,RU,2021-03-12 03:04:11
Fairbanks,64.8378,-147.7164,-2.99,59,20,6.91,US,2021-03-12 03:04:13
Paralímni,35.0375,33.9833,51.8,82,20,20.71,CY,2021-03-12 03:04:14
Walvis Bay,-22.9575,14.5053,61.0,94,77,9.22,NA,2021-03-12 03:03:17
Barrow,71.2906,-156.7887,-9.4,70,1,4.61,US,2021-03-12 03:04:16
Gijang,35.2442,129.2139,51.8,82,90,13.8,KR,2021-03-12 03:01:33
Saint Paul Harbor,57.79,-152.4072,28.4,50,20,27.63,US,2021-03-12 03:04:18
Kaitangata,-46.2817,169.8464,63.0,68,3,8.01,NZ,2021-03-12 03:04:19
Pevek,69.7008,170.3133,-12.37,77,1,10.11,RU,2021-03-12 03:04:21
Artyom,40.4723,50.333,35.6,87,90,23.02,AZ,2021-03-12 03:04:22
Bereket,39.2446,55.5154,39.61,78,100,10.31,TM,2021-03-12 03:00:39
Athani,16.7333,75.0667,82.22,23,0,6.58,IN,2021-03-12 03:04:25
Yellowknife,62.456,-114.3525,9.0,72,75,9.22,CA,2021-03-12 03:01:27
Westport,41.1415,-73.3579,51.01,71,40,10.36,US,2021-03-12 02:59:40
Borås,57.721,12.9401,39.0,93,90,16.11,SE,2021-03-12 03:04:29
Cuité,-6.4836,-36.1536,68.86,88,50,10.27,BR,2021-03-12 03:04:30
Hong Kong,22.2855,114.1577,75.0,69,36,4.0,HK,2021-03-12 03:04:31
Vezirköprü,41.1436,35.4547,28.4,69,75,6.91,TR,2021-03-12 03:04:32
Bluff,-46.6,168.3333,64.99,63,14,8.99,NZ,2021-03-12 03:04:34
Lüderitz,-26.6481,15.1594,66.02,85,0,4.56,NA,2021-03-12 03:04:35
The Valley,18.217,-63.0578,77.0,78,20,9.22,AI,2021-03-12 03:04:36
Puerto Ayora,-0.7393,-90.3518,77.0,93,83,1.01,EC,2021-03-12 03:04:37
Tiarei,-17.5333,-149.3333,84.2,70,75,14.97,PF,2021-03-12 03:04:39
Vila Velha,-20.3297,-40.2925,77.0,88,0,5.75,BR,2021-03-12 03:00:24
Pierre,44.3683,-100.351,41.0,74,1,8.46,US,2021-03-12 03:04:41
Waterloo,43.4668,-80.5164,44.6,61,1,21.85,CA,2021-03-12 03:00:51
Punta Arenas,-53.15,-70.9167,50.0,76,40,10.36,CL,2021-03-12 03:02:19
Hermanus,-34.4187,19.2345,64.99,84,97,5.01,ZA,2021-03-12 03:04:44
Arraial do Cabo,-22.9661,-42.0278,76.08,90,89,14.14,BR,2021-03-12 03:00:06
Pangnirtung,66.1451,-65.7125,-17.09,98,92,2.35,CA,2021-03-12 03:04:47
Maceió,-9.6658,-35.7353,75.2,94,40,4.61,BR,2021-03-12 03:04:48
Mel'nikovo,56.5558,84.085,21.0,58,43,17.0,RU,2021-03-12 03:04:49
Port Hardy,50.6996,-127.4199,46.4,57,90,9.22,CA,2021-03-12 03:04:50
Bang Saphan,11.2126,99.5117,86.0,84,75,3.91,TH,2021-03-12 03:04:51
Roebourne,-20.7833,117.1333,91.6,52,4,10.67,AU,2021-03-12 03:04:53
Nikolskoye,59.7035,30.7861,21.2,63,90,13.42,RU,2021-03-12 03:04:54
Road Town,18.4167,-64.6167,77.0,83,27,15.99,VG,2021-03-12 03:04:55
Busselton,-33.65,115.3333,69.01,59,68,5.01,AU,2021-03-12 03:04:58
Bengkulu,-3.8004,102.2655,76.66,91,100,9.4,ID,2021-03-12 03:04:59
Starnberg,48.0,11.35,39.2,81,75,18.41,DE,2021-03-12 03:05:00
Winona,43.9666,-91.7668,37.4,65,1,3.44,US,2021-03-12 03:05:01
Mutoko,-17.397,32.2268,58.66,97,10,3.56,ZW,2021-03-12 03:05:02
Henties Bay,-22.116,14.2845,61.0,95,0,4.0,NA,2021-03-12 03:05:04
Khartoum,15.5518,32.5324,81.0,23,0,16.08,SD,2021-03-12 03:05:05
Tasiilaq,65.6145,-37.6368,23.0,54,90,16.11,GL,2021-03-12 03:05:06
Tahe,52.3333,124.7333,37.53,67,0,8.48,CN,2021-03-12 03:05:07
Acapulco de Juárez,16.8634,-99.8901,78.8,83,75,5.75,MX,2021-03-12 03:00:10
Stornoway,58.2093,-6.3865,39.2,81,75,17.27,GB,2021-03-12 03:05:11
Ketchikan,55.3422,-131.6461,37.4,93,90,3.44,US,2021-03-12 03:05:12
Kashin,57.3592,37.6081,-0.76,85,0,9.51,RU,2021-03-12 03:05:13
Baker City,44.7749,-117.8344,37.4,60,1,9.22,US,2021-03-12 03:05:14
Byron Bay,-28.65,153.6167,77.0,78,40,8.05,AU,2021-03-12 03:05:16
Angoche,-16.2325,39.9086,76.26,89,5,5.48,MZ,2021-03-12 03:05:17
Tessalit,20.1986,1.0114,60.82,40,0,13.58,ML,2021-03-12 03:05:18
Sterling,39.0062,-77.4286,66.0,34,20,4.61,US,2021-03-12 03:01:42
Chunskiy,56.0815,99.6342,21.79,85,100,4.99,RU,2021-03-12 03:05:20
Portland,45.5234,-122.6762,53.01,50,20,0.72,US,2021-03-12 03:04:38
Bahía Blanca,-38.7196,-62.2724,65.55,33,0,4.94,AR,2021-03-12 03:05:23
Vangaindrano,-23.35,47.6,74.32,86,62,3.0,MG,2021-03-12 03:03:09
Mar del Plata,-38.0023,-57.5575,64.99,72,0,9.22,AR,2021-03-12 03:05:25
Bara,10.3744,10.7288,74.97,40,96,2.08,NG,2021-03-12 03:05:26
Lebu,-37.6167,-73.65,56.62,79,0,16.2,CL,2021-03-12 03:05:28
San Buenaventura,27.0833,-101.5333,74.75,51,96,4.41,MX,2021-03-12 03:05:29
Cape Town,-33.9258,18.4232,61.0,72,0,3.44,ZA,2021-03-12 03:05:30
Rawson,-43.3002,-65.1023,67.08,49,96,6.35,AR,2021-03-12 03:05:31
George Town,5.4112,100.3354,87.8,65,20,3.44,MY,2021-03-12 03:05:33
Ashtabula,41.7001,-80.7665,59.0,77,90,11.5,US,2021-03-12 03:05:34
Valday,57.9747,33.2525,12.81,85,92,13.18,RU,2021-03-12 03:05:35
Sanandij,35.3144,46.9923,44.6,81,75,9.22,IR,2021-03-12 03:00:45
Narganá,9.4428,-78.5906,77.86,81,71,10.67,PA,2021-03-12 03:05:37
Banda Aceh,5.5577,95.3222,84.63,64,98,8.46,ID,2021-03-12 03:05:39
Voznesen'ye,61.0106,35.4781,5.97,86,0,6.73,RU,2021-03-12 03:05:40
Sironko,1.2313,34.2477,68.13,44,93,3.11,UG,2021-03-12 03:05:41
Sørland,67.667,12.6934,35.02,67,100,21.05,NO,2021-03-12 03:05:42
Taoudenni,22.6783,-3.9836,63.93,36,0,16.51,ML,2021-03-12 03:05:43
Hasaki,35.7333,140.8333,63.0,72,75,5.75,JP,2021-03-12 03:05:45
Kirakira,-10.4544,161.9205,84.18,75,98,3.6,SB,2021-03-12 03:05:46
Siniscola,40.5719,9.6922,55.4,76,0,17.27,IT,2021-03-12 03:05:47
Klaksvík,62.2266,-6.589,37.4,93,75,16.11,FO,2021-03-12 03:05:48
Guatire,10.4762,-66.5427,78.8,78,40,1.68,VE,2021-03-12 03:05:50
Gryazovets,58.88,40.2525,-0.49,89,0,8.43,RU,2021-03-12 03:05:51
Guerrero Negro,27.9769,-114.0611,57.36,75,71,8.68,MX,2021-03-12 03:05:52
Bilma,18.6853,12.9164,78.94,7,88,11.25,NE,2021-03-12 03:05:53
Butembo,0.15,29.2833,61.7,59,71,4.05,CD,2021-03-12 03:05:55
Lamu,-2.2717,40.902,76.06,87,2,7.54,KE,2021-03-12 03:05:56
Avarua,-21.2078,-159.775,84.2,65,90,6.91,CK,2021-03-12 03:05:57
Khatanga,71.9667,102.5,-13.61,88,100,18.68,RU,2021-03-12 03:05:58
Srednekolymsk,67.45,153.6833,-0.42,84,100,6.69,RU,2021-03-12 03:06:00
Bam,29.106,58.357,61.79,25,36,5.08,IR,2021-03-12 03:06:01
Igrim,63.1906,64.4162,-6.92,96,100,7.47,RU,2021-03-12 03:06:02
Cayenne,4.9333,-52.3333,77.0,94,75,3.44,GF,2021-03-12 03:06:03
San Patricio,28.017,-97.5169,72.0,94,90,19.57,US,2021-03-12 03:06:05
Kirkuk,35.4681,44.3922,55.78,70,96,5.75,IQ,2021-03-12 03:06:06
Harper,4.375,-7.7169,78.84,86,97,5.64,LR,2021-03-12 03:03:14
Basco,20.4487,121.9702,76.91,75,14,17.05,PH,2021-03-12 03:06:08
Pasni,25.2631,63.471,73.15,77,0,6.67,PK,2021-03-12 03:06:10
Mahabalipuram,12.6264,80.1722,77.0,83,40,3.44,IN,2021-03-12 03:06:11
Puerto Suárez,-18.95,-57.8,77.5,53,46,3.33,BO,2021-03-12 03:06:12
Half Moon Bay,37.4636,-122.4286,48.99,71,1,13.8,US,2021-03-12 03:06:13
Nouadhibou,20.931,-17.0347,67.84,46,96,15.95,MR,2021-03-12 03:06:15
Bela,25.9333,81.9833,80.04,22,0,4.85,IN,2021-03-12 03:06:16
Seminole,28.7086,-81.2081,66.0,82,1,4.61,US,2021-03-12 03:06:17
São Miguel do Araguaia,-13.275,-50.1628,72.34,94,100,1.83,BR,2021-03-12 03:06:19
Mahébourg,-20.4081,57.7,75.2,100,75,5.75,MU,2021-03-12 03:06:21
San Vicente,-26.6167,-54.1333,60.22,67,0,3.38,AR,2021-03-12 03:06:22
Port Moresby,-9.4431,147.1797,86.0,66,40,4.61,PG,2021-03-12 03:06:23
Rudnogorsk,57.2639,103.7519,20.39,85,100,8.63,RU,2021-03-12 03:06:24
Bac Lieu,9.285,105.7244,85.86,59,44,21.14,VN,2021-03-12 03:06:26
Kampong Thom,12.7111,104.8887,91.06,31,9,7.49,KH,2021-03-12 03:06:27
Norman Wells,65.282,-126.8329,6.8,78,90,18.41,CA,2021-03-12 03:06:28
Lesnoy,57.6198,63.0784,-16.96,93,72,5.46,RU,2021-03-12 03:06:30
Esperance,-33.8667,121.9,62.6,100,90,11.5,AU,2021-03-12 03:06:32
Vao,-22.6667,167.4833,75.97,74,8,16.04,NC,2021-03-12 03:06:33
Kazachinskoye,57.6953,93.2761,24.03,72,100,8.68,RU,2021-03-12 03:06:34
East London,-33.0153,27.9116,70.14,74,84,18.03,ZA,2021-03-12 03:06:35
Boussé,12.6606,-1.8922,82.4,18,0,4.61,BF,2021-03-12 03:06:38
Paamiut,61.994,-49.6678,17.19,81,100,5.55,GL,2021-03-12 03:06:39
São João do Paraíso,-15.3136,-42.0144,64.94,83,98,1.25,BR,2021-03-12 03:06:40
Upernavik,72.7868,-56.1549,-2.31,80,18,2.01,GL,2021-03-12 03:06:41
Cabedelo,-6.9811,-34.8339,78.8,89,0,4.61,BR,2021-03-12 03:06:43
Dikson,73.5069,80.5464,-16.51,93,100,26.62,RU,2021-03-12 03:06:44
Abéché,13.8292,20.8324,79.18,7,0,14.56,TD,2021-03-12 03:06:45
Corinth,37.9407,22.9573,41.0,59,1,1.99,GR,2021-03-12 03:06:46
Barra de Tecoanapa,16.5167,-98.75,76.82,80,0,0.92,MX,2021-03-12 03:06:48
Tuatapere,-46.1333,167.6833,64.99,63,3,8.99,NZ,2021-03-12 03:06:49
Adrar,20.5022,-10.0711,60.64,32,5,10.29,MR,2021-03-12 03:06:50
San Cristobal,7.7669,-72.225,78.8,73,40,3.44,VE,2021-03-12 03:06:51
Sinnamary,5.3833,-52.95,77.45,88,100,12.28,GF,2021-03-12 03:06:53
Petropavlovsk-Kamchatskiy,53.0452,158.6483,32.0,47,58,17.9,RU,2021-03-12 03:06:54
Longyearbyen,78.2186,15.6401,3.2,55,20,17.27,SJ,2021-03-12 03:06:55
Carutapera,-1.195,-46.02,76.17,89,100,3.78,BR,2021-03-12 03:06:56
Skjervøy,70.0311,20.9714,24.58,67,3,13.71,NO,2021-03-12 03:06:58
Inírida,3.8653,-67.9239,74.23,88,1,2.59,CO,2021-03-12 03:06:59
São Félix do Xingu,-6.6447,-51.995,71.8,97,100,1.03,BR,2021-03-12 03:07:00
Ca Mau,9.1769,105.15,89.87,46,34,13.71,VN,2021-03-12 03:07:02
Bischofswerda,51.1277,14.1797,44.01,90,59,1.01,DE,2021-03-12 03:07:04
Yalutorovsk,56.6536,66.3006,-9.26,97,97,6.76,RU,2021-03-12 03:07:05
Terney,45.0503,136.6092,37.92,61,0,5.59,RU,2021-03-12 03:07:06
Arman',59.7,150.1667,13.62,70,92,4.81,RU,2021-03-12 03:07:07
Atuona,-9.8,-139.0333,80.02,63,42,5.5,PF,2021-03-12 03:07:09
Roald,62.5833,6.1333,41.0,81,20,12.66,NO,2021-03-12 03:07:10
Rome,43.2128,-75.4557,59.0,63,75,8.05,US,2021-03-12 03:07:11
Wilmington,34.2257,-77.9447,59.0,67,1,6.91,US,2021-03-12 02:57:26
Constitución,-35.3333,-72.4167,58.48,70,0,8.95,CL,2021-03-12 03:07:15
Kudahuvadhoo,2.6708,72.8944,82.74,70,40,5.77,MV,2021-03-12 03:07:16
Chokurdakh,70.6333,147.9167,-9.22,90,49,7.49,RU,2021-03-12 03:07:17
Provideniya,64.3833,-173.3,1.4,85,0,4.47,RU,2021-03-12 03:07:18
Deniliquin,-35.5333,144.9667,88.0,35,0,4.7,AU,2021-03-12 03:07:20
Baghdad,33.3406,44.4009,64.4,48,75,6.91,IQ,2021-03-12 03:07:21
Padang,-0.9492,100.3543,80.6,83,75,3.04,ID,2021-03-12 03:05:20
Lac du Bonnet,50.2536,-96.0612,12.99,100,100,8.79,CA,2021-03-12 03:07:23
Shache,38.4167,77.2406,53.04,29,100,3.8,CN,2021-03-12 03:07:25
Beringovskiy,63.05,179.3167,25.41,95,100,10.76,RU,2021-03-12 03:07:26
Auki,-8.7676,160.7034,82.94,75,99,7.36,SB,2021-03-12 03:07:27
Harrismith,-28.2728,29.1295,52.48,98,33,4.72,ZA,2021-03-12 03:07:28
Santa Rosa,14.3122,121.1114,86.0,78,75,13.8,PH,2021-03-12 03:07:29
Gornopravdinsk,60.05,69.9,-17.12,97,28,4.88,RU,2021-03-12 03:07:31
Viedma,-40.8135,-62.9967,64.8,39,0,10.27,AR,2021-03-12 03:07:33
Honiara,-9.4333,159.95,82.78,76,89,2.66,SB,2021-03-12 03:07:34
Trabzon Province,40.9167,39.8333,39.2,75,75,24.16,TR,2021-03-12 03:07:35
Port Hawkesbury,45.6169,-61.3485,42.01,87,90,10.07,CA,2021-03-12 03:07:38
Adilabad,19.6667,78.5333,86.32,18,0,6.29,IN,2021-03-12 03:07:39
Mount Isa,-20.7333,139.5,96.8,34,40,6.91,AU,2021-03-12 03:07:41
São José da Coroa Grande,-8.8978,-35.1478,77.97,83,2,5.46,BR,2021-03-12 03:07:43
Husavik,66.0449,-17.3389,32.0,100,90,13.8,IS,2021-03-12 03:07:45
Tyret’ Pervaya,53.6703,102.3106,27.23,93,100,6.35,RU,2021-03-12 03:07:46
Saskylakh,71.9167,114.0833,-8.95,88,100,16.73,RU,2021-03-12 03:07:47
Kangaatsiaq,68.3065,-53.4641,12.65,91,96,3.83,GL,2021-03-12 03:07:49
Amahai,-3.3333,128.9167,80.6,81,99,2.46,ID,2021-03-12 03:07:50
Miajadas,39.1513,-5.9084,48.99,89,46,4.0,ES,2021-03-12 03:07:51
Matara,5.9485,80.5353,78.89,77,100,9.66,LK,2021-03-12 03:07:52
Evensk,61.95,159.2333,18.52,81,100,17.63,RU,2021-03-12 03:07:54
Saldanha,-33.0117,17.9442,55.4,76,100,1.14,ZA,2021-03-12 03:07:55
Moosomin,50.1333,-101.6677,5.02,80,0,4.38,CA,2021-03-12 03:07:57
Areosa,41.7178,-8.8571,51.8,93,75,5.37,PT,2021-03-12 03:07:58
Jampur,29.6441,70.5954,70.2,48,100,23.51,PK,2021-03-12 03:08:00
Kiama,-34.6833,150.8667,75.99,82,86,1.99,AU,2021-03-12 03:08:02
Iquitos,-3.7481,-73.2472,77.0,88,75,4.61,PE,2021-03-12 03:08:03
Chui,-33.6971,-53.4616,63.97,85,7,4.07,UY,2021-03-12 03:08:04
Sittwe,20.15,92.9,80.1,33,0,4.56,MM,2021-03-12 03:08:06
Vestmannaeyjar,63.4427,-20.2734,37.36,66,83,12.73,IS,2021-03-12 03:08:08
Bambous Virieux,-20.3428,57.7575,75.99,100,75,5.75,MU,2021-03-12 03:08:09
Aripuanã,-9.1667,-60.6333,70.59,99,99,1.68,BR,2021-03-12 03:07:18
Vallenar,-28.5708,-70.7581,63.86,77,19,1.16,CL,2021-03-12 03:05:24
Clyde River,70.4692,-68.5914,-9.4,77,75,6.91,CA,2021-03-12 03:08:14
Khanpur,28.6453,70.6567,68.38,50,68,17.47,PK,2021-03-12 03:08:15
Yangi Marg`ilon,40.4272,71.7189,37.4,87,95,6.91,UZ,2021-03-12 03:08:16
Praxédis Guerrero,31.3667,-106.0167,69.8,8,75,5.75,MX,2021-03-12 03:08:17
Siloam Springs,36.1881,-94.5405,53.6,100,90,3.44,US,2021-03-12 03:08:19
Macomb,40.4592,-90.6718,44.01,87,1,5.75,US,2021-03-12 03:08:20
Staffanstorp,55.6428,13.2064,41.0,87,90,19.57,SE,2021-03-12 03:08:21
Souillac,-20.5167,57.5167,75.2,100,75,5.75,MU,2021-03-12 03:08:22
Ixtapa,20.7,-105.2,73.0,88,20,1.86,MX,2021-03-12 03:08:24
Hamilton,39.1834,-84.5333,57.2,94,90,5.75,US,2021-03-12 03:06:12
Ostrovnoy,68.0531,39.5131,10.35,88,36,31.59,RU,2021-03-12 03:08:26
Kadirli,37.3739,36.0961,50.0,49,60,10.0,TR,2021-03-12 03:08:27
Moroni,-11.7022,43.2551,79.18,80,26,2.95,KM,2021-03-12 03:08:28
Kloulklubed,7.0419,134.2556,80.6,83,75,17.27,PW,2021-03-12 03:08:30
Bonavista,48.6499,-53.1147,34.0,93,92,8.05,CA,2021-03-12 03:08:31
Ilhabela,-23.7781,-45.3581,73.96,88,50,1.72,BR,2021-03-12 03:08:14
Buraidah,26.326,43.975,64.4,63,0,6.91,SA,2021-03-12 03:08:34
Black River,18.0264,-77.8487,78.8,78,75,11.5,JM,2021-03-12 03:08:36
Jamestown,42.097,-79.2353,53.6,82,75,15.93,US,2021-03-12 03:05:42
Faanui,-16.4833,-151.75,83.17,72,74,8.57,PF,2021-03-12 03:08:38
Airai,-8.9266,125.4092,71.19,81,100,0.4,TL,2021-03-12 03:08:39
Nuevo Progreso,23.1667,-97.95,73.99,71,7,1.99,MX,2021-03-12 03:08:40
Wilkie,52.4168,-108.7014,19.4,79,1,10.36,CA,2021-03-12 03:08:42
Bethel,41.3712,-73.414,62.6,36,1,11.5,US,2021-03-12 03:08:43
Serebriya,48.4559,27.7192,27.0,67,100,3.0,UA,2021-03-12 03:08:45
Quatre Cocos,-20.2078,57.7625,75.99,100,75,5.75,MU,2021-03-12 03:08:46
Namatanai,-3.6667,152.4333,85.06,65,100,3.0,PG,2021-03-12 03:08:48
Kitimat,54.0524,-128.6534,34.0,95,100,4.61,CA,2021-03-12 03:04:46
Torbay,47.6666,-52.7314,34.0,93,90,17.27,CA,2021-03-12 03:05:27
Andenes,69.3143,16.1194,32.0,69,75,17.27,NO,2021-03-12 03:08:52
Phon,15.816,102.5998,90.0,99,0,10.02,TH,2021-03-12 03:08:53
Port Shepstone,-30.7414,30.455,72.73,78,99,7.65,ZA,2021-03-12 03:08:55
Moengo,5.6167,-54.4,74.08,96,100,2.86,SR,2021-03-12 03:08:56
Maryville,35.7565,-83.9705,62.6,55,75,10.36,US,2021-03-12 03:08:57
Nanning,22.8167,108.3167,62.6,88,90,2.24,CN,2021-03-12 03:08:58
Flin Flon,54.7682,-101.865,4.6,91,54,4.56,CA,2021-03-12 03:09:00
Alofi,-19.0595,-169.9187,82.4,69,22,6.91,NU,2021-03-12 03:09:02
Moyale,3.5167,39.0584,60.22,78,37,4.21,KE,2021-03-12 03:09:03
Biak,-0.9131,122.8766,82.63,68,100,0.76,ID,2021-03-12 03:09:04
Polis,35.0367,32.4264,57.2,62,18,16.11,CY,2021-03-12 03:09:06
Avera,33.194,-82.5271,60.8,72,1,8.05,US,2021-03-12 03:09:07
Kosa,59.9445,54.9977,3.24,94,99,7.16,RU,2021-03-12 03:09:08
Nampula,-15.1165,39.2666,73.4,94,75,2.3,MZ,2021-03-12 03:09:09
Santa Barbara,34.7333,-120.0343,45.0,75,90,2.53,US,2021-03-12 03:09:11
Irtyshskiy,58.3333,68.1333,-10.05,96,98,7.43,RU,2021-03-12 03:09:12
Coquimbo,-29.9533,-71.3436,60.8,94,0,3.44,CL,2021-03-12 03:05:58
Yurgamysh,55.3714,64.4656,-12.48,97,84,8.75,RU,2021-03-12 03:09:14
Presidencia Roque Sáenz Peña,-26.7852,-60.4388,75.99,49,0,3.0,AR,2021-03-12 03:09:15
Birin,26.8865,88.0718,66.96,35,0,4.27,NP,2021-03-12 03:09:17
Falmouth,50.1544,-5.0711,46.4,81,40,28.77,GB,2021-03-12 03:09:18
Deputatsky,69.3,139.9,-7.64,82,54,2.46,RU,2021-03-12 03:09:19
Krasnoarmeysk,51.0239,45.6969,8.01,39,10,3.65,RU,2021-03-12 03:09:20
Pahrump,36.2083,-115.9839,46.99,49,81,3.0,US,2021-03-12 03:07:55
Erenhot,43.6475,111.9767,34.36,61,0,9.53,CN,2021-03-12 03:09:23
Zaragoza,41.6561,-0.8773,51.01,81,0,10.36,ES,2021-03-12 03:09:24
Parabel',58.6978,81.4825,12.52,88,97,14.23,RU,2021-03-12 03:09:25
Maiduguri,11.8464,13.1603,73.65,26,100,2.39,NG,2021-03-12 03:09:26
Santa Isabel,-23.3156,-46.2214,71.01,94,0,3.44,BR,2021-03-12 03:09:28
Koslan,63.4564,48.8989,6.96,89,100,9.78,RU,2021-03-12 03:09:29
Meulaboh,4.1363,96.1285,83.59,69,76,3.27,ID,2021-03-12 03:09:30
Buala,-8.145,159.5921,84.67,70,100,6.58,SB,2021-03-12 03:09:32
Hithadhoo,-0.6,73.0833,82.81,65,37,5.01,MV,2021-03-12 03:09:34
Mpongwe,-13.5091,28.155,63.66,98,98,5.46,ZM,2021-03-12 03:09:35
Ust-Tsilma,65.441,52.1498,6.19,89,99,7.43,RU,2021-03-12 03:09:36
Ulaangom,49.9811,92.0667,19.38,79,39,2.01,MN,2021-03-12 03:09:37
Bubaque,11.2833,-15.8333,77.95,59,0,14.63,GW,2021-03-12 03:09:39
Navashino,55.5292,42.2003,-3.8,95,0,6.08,RU,2021-03-12 03:09:40
At-Bashi,41.1702,75.8106,24.33,60,100,3.22,KG,2021-03-12 03:09:41
Pathein,16.7833,94.7333,93.47,26,0,9.04,MM,2021-03-12 03:09:42
‘Ewa Beach,21.3156,-158.0072,78.8,73,40,5.75,US,2021-03-12 03:09:44
Abay,49.6311,72.8539,10.4,79,75,15.66,KZ,2021-03-12 03:09:45
Bhadrāchalam,17.6667,80.8833,80.15,60,0,5.46,IN,2021-03-12 03:09:46
Solnechnyy,50.7214,136.6319,31.68,51,0,3.29,RU,2021-03-12 03:09:47
Severo-Kuril'sk,50.6789,156.125,25.41,82,85,29.82,RU,2021-03-12 03:09:49
Kiryat Gat,31.61,34.7642,57.99,100,47,3.0,IL,2021-03-12 03:05:00
Champerico,14.3,-91.9167,68.0,87,2,4.14,GT,2021-03-12 03:09:51
Kissidougou,9.1848,-10.0999,73.51,86,74,3.85,GN,2021-03-12 03:09:52
Kapoeta,4.7717,33.5903,84.33,29,94,18.66,SS,2021-03-12 03:09:53
Khani,41.9563,42.9566,35.6,93,90,9.22,GE,2021-03-12 03:09:55
Orizona,-17.0314,-48.2958,66.74,91,86,0.74,BR,2021-03-12 03:09:56
Tashtyp,52.7939,89.8983,25.23,84,54,0.87,RU,2021-03-12 03:09:57
Khonsa,27.0167,95.5667,72.59,44,20,2.82,IN,2021-03-12 03:09:59
Ha Tinh,18.3333,105.9,75.83,79,100,4.61,VN,2021-03-12 03:10:01
Gweta,-20.1833,25.2333,72.66,41,1,7.56,BW,2021-03-12 03:10:02
Araouane,18.9048,-3.5265,62.31,40,0,11.61,ML,2021-03-12 03:10:04
Bosaso,11.2842,49.1816,74.1,63,0,10.02,SO,2021-03-12 03:10:05
Ouro Fino,-22.2831,-46.3692,64.02,94,99,1.28,BR,2021-03-12 03:10:06
Lagoa,39.05,-27.9833,55.67,65,100,12.12,PT,2021-03-12 03:10:07
Praia,14.9215,-23.5087,66.2,82,95,16.11,CV,2021-03-12 03:10:09
Dhidhdhoo,6.8833,73.1,83.26,73,57,20.24,MV,2021-03-12 03:10:10
Ancud,-41.8697,-73.8203,54.0,100,90,2.3,CL,2021-03-12 03:10:11
Griffith,41.5284,-87.4237,46.0,65,1,4.61,US,2021-03-12 03:10:12
Villanueva,15.3167,-88.0,70.3,96,30,2.33,HN,2021-03-12 03:10:14
Brae,60.3964,-1.353,42.8,81,75,29.93,GB,2021-03-12 03:10:15
Tarakan,3.3,117.6333,80.58,76,65,4.27,ID,2021-03-12 03:10:16
Oranjemund,-28.55,16.4333,63.0,92,5,2.24,NA,2021-03-12 03:10:17
Morón,-34.6534,-58.6198,78.01,74,91,11.1,AR,2021-03-12 03:09:55
Katherine,-14.4667,132.2667,89.6,55,40,11.5,AU,2021-03-12 03:10:20
Mbeya,-8.9,33.45,58.1,88,70,3.6,TZ,2021-03-12 03:10:21
Nemuro,43.3236,145.575,39.2,56,20,5.75,JP,2021-03-12 03:10:22
Kununurra,-15.7667,128.7333,87.8,70,40,4.61,AU,2021-03-12 03:07:27
Emerald,-23.5333,148.1667,88.0,48,40,5.75,AU,2021-03-12 03:10:24
Tandil,-37.3217,-59.1332,53.38,63,0,5.46,AR,2021-03-12 03:10:26
Arrondissement de Beaune,47.0833,4.75,44.6,70,75,8.05,FR,2021-03-12 03:10:27
Mareeba,-17.0,145.4333,90.0,51,86,16.11,AU,2021-03-12 03:10:28
Riohacha,11.5444,-72.9072,75.11,82,3,10.2,CO,2021-03-12 03:07:00
Tutóia,-2.7619,-42.2744,78.04,89,99,11.07,BR,2021-03-12 03:10:31
Burnie,-41.0667,145.9167,71.01,78,92,10.0,AU,2021-03-12 03:10:33
Shubarkuduk,49.1447,56.4872,-14.28,97,16,5.93,KZ,2021-03-12 03:10:34
Richards Bay,-28.783,32.0377,74.5,82,80,6.64,ZA,2021-03-12 03:10:36
Tautira,-17.7333,-149.15,84.2,70,75,14.97,PF,2021-03-12 03:10:38
Mahajanga,-15.7167,46.3167,77.0,94,20,3.44,MG,2021-03-12 03:10:39
Paphos,34.7667,32.4167,57.2,62,2,16.11,CY,2021-03-12 03:10:40
New Norfolk,-42.7826,147.0587,80.01,57,75,8.05,AU,2021-03-12 03:10:41
Demba,-5.51,22.2667,68.05,97,100,1.05,CD,2021-03-12 03:09:27
Ures,29.4333,-110.4,63.0,38,76,1.99,MX,2021-03-12 03:10:44
Leer,8.3018,30.1418,82.85,31,62,3.02,SS,2021-03-12 03:10:45
Cabo San Lucas,22.8909,-109.9124,68.0,56,20,9.22,MX,2021-03-12 03:10:47
Owensboro,37.7742,-87.1133,59.0,100,90,4.61,US,2021-03-12 03:10:48
Moose Factory,51.2585,-80.6094,15.8,79,90,17.27,CA,2021-03-12 03:10:50
Muros,42.7762,-9.0603,43.0,95,51,1.01,ES,2021-03-12 03:10:51
Alora,36.8236,-4.7058,62.6,51,0,14.97,ES,2021-03-12 03:10:52
Bhor,18.1667,73.85,78.69,27,0,3.91,IN,2021-03-12 03:10:53
Ola,59.5833,151.2833,10.8,68,94,4.52,RU,2021-03-12 03:10:55
Bathsheba,13.2167,-59.5167,78.8,65,40,19.57,BB,2021-03-12 03:10:56
Camalú,30.85,-116.0667,48.99,61,2,1.01,MX,2021-03-12 03:10:57
Victor Harbor,-35.5667,138.6167,87.01,29,20,1.99,AU,2021-03-12 03:10:58
Nandu,22.8525,110.8233,71.6,78,99,4.09,CN,2021-03-12 03:11:00
Leningradskiy,69.3833,178.4167,-6.92,67,29,1.23,RU,2021-03-12 03:11:01
Makakilo City,21.3469,-158.0858,78.8,73,40,5.75,US,2021-03-12 03:11:02
Beloha,-25.1667,45.05,71.11,96,0,5.14,MG,2021-03-12 03:11:03
Foz,43.5692,-7.2544,43.0,100,24,4.0,ES,2021-03-12 03:11:05
Saint-Louis,16.3333,-15.0,74.1,22,90,16.22,SN,2021-03-12 03:11:06
Kahului,20.8947,-156.47,71.6,94,75,10.36,US,2021-03-12 03:11:07
Flinders,-34.5833,150.8552,73.99,82,87,1.99,AU,2021-03-12 03:11:08
Eureka,40.8021,-124.1637,48.99,85,0,8.99,US,2021-03-12 03:11:10
Boyolangu,-8.1181,111.8935,85.66,66,26,1.32,ID,2021-03-12 03:11:11
Nyurba,63.2842,118.3319,15.94,92,100,6.46,RU,2021-03-12 03:11:12
Saint George,37.1041,-113.5841,39.99,93,75,4.61,US,2021-03-12 03:06:14
Narsaq,60.9167,-46.05,15.8,67,75,3.44,GL,2021-03-12 03:11:14
Berbérati,4.2612,15.7922,68.2,93,100,2.01,CF,2021-03-12 03:11:16
Storslett,69.7678,21.0247,16.43,80,0,14.09,NO,2021-03-12 03:11:17
Ribeira Grande,38.5167,-28.7,56.88,76,100,10.13,PT,2021-03-12 03:11:19
Outram,1.2829,103.8379,84.2,70,75,6.91,MY,2021-03-12 03:11:21
Tiksi,71.6872,128.8694,-9.51,86,100,27.51,RU,2021-03-12 03:11:22
Río Gallegos,-51.6226,-69.2181,57.2,51,40,11.5,AR,2021-03-12 03:11:23
Conde,-7.2597,-34.9075,78.8,89,0,4.61,BR,2021-03-12 03:11:24
Yar-Sale,66.8333,70.8333,-9.42,94,100,19.13,RU,2021-03-12 03:11:26
Dingle,10.9995,122.6711,79.14,83,100,11.61,PH,2021-03-12 03:11:28
Silifke,36.3778,33.9344,50.7,46,52,33.38,TR,2021-03-12 03:11:29
Nanortalik,60.1432,-45.2371,18.0,80,83,17.16,GL,2021-03-12 03:11:31
Pedernales,18.0384,-71.744,75.92,75,75,4.59,DO,2021-03-12 03:11:32
Narragansett,41.4501,-71.4495,50.0,81,1,12.66,US,2021-03-12 03:11:33
Isangel,-19.55,169.2667,86.0,66,75,11.5,VU,2021-03-12 03:11:35
Kavieng,-2.5744,150.7967,84.63,61,45,3.47,PG,2021-03-12 03:11:36
Krasnosel'kup,65.7,82.4667,-22.79,91,86,5.32,RU,2021-03-12 03:11:37
Thai Binh,20.45,106.3333,77.0,78,75,6.91,VN,2021-03-12 03:11:38
Nārsingi,18.0333,78.4333,79.0,73,0,2.3,IN,2021-03-12 03:11:39
Christchurch,-43.5333,172.6333,66.99,55,90,8.05,NZ,2021-03-12 03:10:51
Zhangye,38.9342,100.4517,54.55,17,62,4.79,CN,2021-03-12 03:11:43
Tonota,-21.4833,27.4833,74.16,39,96,7.72,BW,2021-03-12 03:11:44
Abadan,38.0507,58.2056,41.0,81,90,13.8,TM,2021-03-12 03:11:46
Karpathos,35.507,27.2132,51.8,62,0,31.07,GR,2021-03-12 03:11:48
Vanavara,60.34,102.2797,17.38,86,100,11.48,RU,2021-03-12 03:11:49
Broome,42.2506,-75.833,55.0,82,20,14.97,US,2021-03-12 03:11:50
Skibotn,69.3913,20.2679,28.4,59,75,19.57,NO,2021-03-12 03:11:51
Wanaka,-44.7,169.15,70.0,47,40,3.0,NZ,2021-03-12 03:11:53
Havøysund,70.9963,24.6622,21.2,73,75,3.44,NO,2021-03-12 03:11:54
Kologriv,58.8275,44.3178,-4.45,97,13,5.17,RU,2021-03-12 03:11:55
Maxixe,-23.8597,35.3472,73.78,84,15,4.56,MZ,2021-03-12 03:11:57
Tamandaré,-8.7597,-35.1047,77.63,83,0,4.68,BR,2021-03-12 03:11:59
Tulun,54.5611,100.5792,25.16,78,100,1.9,RU,2021-03-12 03:12:00
Yershichi,53.6725,32.7542,17.46,82,100,15.43,RU,2021-03-12 03:12:01
Rafrāf,37.1904,10.1837,48.2,81,0,2.3,TN,2021-03-12 03:12:03
Kruisfontein,-34.0033,24.7314,66.99,83,79,4.0,ZA,2021-03-12 03:12:04
Konya Province,38.1667,32.5,28.4,80,40,18.41,TR,2021-03-12 03:12:05
Joensuu,62.6012,29.7632,12.99,79,0,10.36,FI,2021-03-12 03:12:07
Lompoc,34.6391,-120.4579,46.4,76,40,5.35,US,2021-03-12 03:07:47
Sinor,21.9167,73.3333,75.2,64,20,3.13,IN,2021-03-12 03:12:09
Naze,28.3667,129.4833,71.6,78,75,24.16,JP,2021-03-12 03:12:10
Safi,32.2994,-9.2372,54.37,82,0,13.04,MA,2021-03-12 03:12:11
Khovd,48.0056,91.6419,39.81,29,90,9.19,MN,2021-03-12 03:12:13
Urengoy,65.9667,78.3667,-26.93,94,0,7.83,RU,2021-03-12 03:12:14
Berlevåg,70.8578,29.0864,20.35,81,99,28.43,NO,2021-03-12 03:12:15
Tshikapa,-6.4167,20.8,69.8,97,100,0.94,CD,2021-03-12 03:12:16
Dunedin,-45.8742,170.5036,60.01,69,0,10.0,NZ,2021-03-12 03:12:18
Damara,4.9608,18.7035,73.4,88,100,3.44,CF,2021-03-12 03:12:19
Pisco,-13.7,-76.2167,73.4,83,0,10.36,PE,2021-03-12 03:12:20
Venado Tuerto,-33.7456,-61.9688,64.0,97,77,3.0,AR,2021-03-12 03:12:21
Geraldton,-28.7667,114.6,82.4,51,85,10.36,AU,2021-03-12 03:12:25
Korla,41.7597,86.1469,54.32,30,100,12.24,CN,2021-03-12 03:12:27
Hervey Bay,-25.2986,152.8535,86.0,65,75,6.91,AU,2021-03-12 03:07:41
Province of Mantua,45.1667,10.7833,46.99,87,87,3.0,IT,2021-03-12 03:12:29
Kédougou,12.5579,-12.1743,73.78,15,75,1.01,SN,2021-03-12 03:12:31
Trofors,65.5333,13.4063,37.4,65,0,21.85,NO,2021-03-12 03:12:32
Maumere,-8.6199,122.2111,82.24,78,98,4.27,ID,2021-03-12 03:12:33
Ballina,-28.8667,153.5667,78.8,78,40,8.05,AU,2021-03-12 03:12:34
Yerbogachën,61.2767,108.0108,18.86,83,100,17.85,RU,2021-03-12 03:12:37
Pacific Grove,36.6177,-121.9166,51.01,84,20,5.01,US,2021-03-12 03:09:02
Merauke,-8.4667,140.3333,84.9,75,46,6.24,ID,2021-03-12 03:12:39
The Pas,53.8251,-101.2541,1.4,66,1,4.61,CA,2021-03-12 03:12:40
Mount Gambier,-37.8333,140.7667,86.0,30,61,14.97,AU,2021-03-12 03:12:41
Lorengau,-2.0226,147.2712,85.93,60,51,5.28,PG,2021-03-12 03:12:43
Yenagoa,4.9247,6.2642,77.14,93,96,2.48,NG,2021-03-12 03:12:44
Egvekinot,66.3167,-179.1667,-15.29,94,28,2.68,RU,2021-03-12 03:12:45
Orange,33.7,-117.7675,53.6,58,40,4.61,US,2021-03-12 03:10:01
Socorro,31.6546,-106.3033,69.8,8,75,5.75,US,2021-03-12 03:11:18
Barra Patuca,15.8,-84.2833,75.74,86,37,9.73,HN,2021-03-12 03:12:49
Taltal,-25.4,-70.4833,66.06,88,40,3.78,CL,2021-03-12 03:12:50
Fortuna,40.5982,-124.1573,48.99,87,1,6.91,US,2021-03-12 03:12:51
Grand Baie,-20.0182,57.5802,75.99,81,17,5.01,MU,2021-03-12 03:12:52
Pangai,-19.8,-174.35,82.4,74,20,11.5,TO,2021-03-12 03:12:54
Catarman,12.4989,124.6377,76.8,94,100,12.15,PH,2021-03-12 03:12:55
Moorhead,46.8739,-96.7676,28.4,74,75,8.05,US,2021-03-12 03:12:56
Águas Formosas,-17.0822,-40.9358,72.73,88,94,0.98,BR,2021-03-12 03:12:57
Tawang Town,27.5833,91.8667,49.71,63,0,4.16,IN,2021-03-12 03:12:59
Ushtobe,45.2514,77.9838,43.59,45,70,3.78,KZ,2021-03-12 03:13:01
Cap-Chat,49.1001,-66.6821,46.4,61,100,6.91,CA,2021-03-12 03:13:02
Xiongzhou,25.1167,114.3,70.0,69,25,4.65,CN,2021-03-12 03:13:03
Atascadero,35.4894,-120.6707,44.01,88,73,2.24,US,2021-03-12 03:13:05
Dali,25.7,100.1833,63.82,39,0,3.2,CN,2021-03-12 03:13:06
Vuktyl,63.8567,57.3094,2.73,95,100,5.5,RU,2021-03-12 03:13:07
Toora-Khem,52.4675,96.11,31.53,88,66,3.85,RU,2021-03-12 03:13:08
Verkhnyaya Inta,65.9811,60.3094,1.29,91,100,19.93,RU,2021-03-12 03:13:10
Abu Samrah,35.3029,37.1841,49.17,76,23,23.62,SY,2021-03-12 03:13:11
Mackay,-21.15,149.2,86.0,74,40,14.97,AU,2021-03-12 03:13:12
Stokmarknes,68.5646,14.9108,30.99,67,70,1.99,NO,2021-03-12 03:13:14
Hutchinson,38.0608,-97.9298,50.0,43,20,6.91,US,2021-03-12 03:12:47
Ribas do Rio Pardo,-20.4431,-53.7592,73.38,73,58,2.73,BR,2021-03-12 03:13:17
Rodrigues Alves,-7.738,-72.6509,75.2,94,0,2.3,BR,2021-03-12 03:13:18
Chauk,20.8833,94.8167,88.16,19,0,10.83,MM,2021-03-12 03:13:19
Kathmandu,27.7167,85.3167,60.8,72,20,3.44,NP,2021-03-12 03:12:00
Iroquois Falls,48.7669,-80.6831,15.8,79,90,14.97,CA,2021-03-12 03:13:22
Laguna,38.421,-121.4238,55.4,54,1,3.47,US,2021-03-12 03:11:08
Victoria Point,-27.5833,153.3,80.01,75,74,3.0,AU,2021-03-12 03:13:24
Kattivākkam,13.2167,80.3167,77.0,83,40,3.44,IN,2021-03-12 03:13:25
Castelvetro di Modena,44.5058,10.9464,52.0,81,75,1.14,IT,2021-03-12 03:13:27
Evanston,42.0411,-87.6901,48.0,61,1,5.75,US,2021-03-12 03:13:28
Le Vauclin,14.5452,-60.8388,75.2,73,0,8.05,MQ,2021-03-12 03:13:29
Honningsvåg,70.9821,25.9704,24.01,77,53,27.78,NO,2021-03-12 03:13:31
Sohag,26.557,31.6948,68.0,37,0,11.5,EG,2021-03-12 03:13:33
São Filipe,14.8961,-24.4956,69.42,71,72,9.08,CV,2021-03-12 03:13:34
Cedar City,37.6775,-113.0619,30.2,86,90,2.62,US,2021-03-12 03:13:36
Moindou,-21.6924,165.677,86.0,54,40,18.41,NC,2021-03-12 03:13:37
Melipilla,-33.7,-71.2167,66.2,88,98,4.61,CL,2021-03-12 03:13:39
Goundam,16.4145,-3.6708,66.33,26,0,11.99,ML,2021-03-12 03:13:40
Carballo,43.213,-8.691,44.6,100,39,4.61,ES,2021-03-12 03:13:41
Neuquén,-38.9516,-68.0591,68.0,49,0,3.44,AR,2021-03-12 03:13:42
Charters Towers,-20.1,146.2667,88.16,43,0,11.99,AU,2021-03-12 03:13:44
Sambava,-14.2667,50.1667,75.54,89,17,6.98,MG,2021-03-12 03:13:45
Verāval,20.9,70.3667,74.52,70,0,7.23,IN,2021-03-12 03:13:46
Bilibino,68.0546,166.4372,-6.23,77,22,3.53,RU,2021-03-12 03:13:47
Trumbull,41.3167,-80.7665,57.99,77,90,11.5,US,2021-03-12 03:13:49
Rongcheng,30.634,117.8517,55.56,74,81,2.48,CN,2021-03-12 03:13:50
Belūsovka,50.1339,82.5239,33.8,75,90,11.18,KZ,2021-03-12 03:13:51
Kiunga,-6.1219,141.2906,95.76,45,40,2.21,PG,2021-03-12 03:13:54
Port-Gentil,-0.7193,8.7815,81.03,81,100,6.78,GA,2021-03-12 03:13:56
Fethiye,36.6217,29.1164,48.2,43,20,28.77,TR,2021-03-12 03:13:57
Belaya Gora,68.5333,146.4167,-1.08,85,7,3.83,RU,2021-03-12 03:13:58
La Ronge,55.1001,-105.2842,10.4,61,73,4.61,CA,2021-03-12 03:13:59
Manyana,-23.4,21.7167,72.09,46,53,4.45,BW,2021-03-12 03:14:01
Frontera,26.9333,-101.45,75.36,48,93,2.55,MX,2021-03-12 03:14:02
Manggar,-2.8833,108.2667,85.41,60,100,4.45,ID,2021-03-12 03:14:03
Micheweni,-4.9667,39.8333,79.41,75,61,8.68,TZ,2021-03-12 03:14:04
Wuda,39.4994,106.7117,52.48,42,100,4.34,CN,2021-03-12 03:14:06
Antalaha,-14.9003,50.2788,74.23,88,6,5.68,MG,2021-03-12 03:14:07
Kismayo,-0.3582,42.5454,77.5,84,77,13.06,SO,2021-03-12 03:14:08
Tsogni,-2.7942,10.0988,77.11,89,73,3.22,GA,2021-03-12 03:14:09
Calabozo,8.9242,-67.4293,79.12,59,8,8.59,VE,2021-03-12 03:14:11
Ipojuca,-8.3989,-35.0639,80.6,69,40,6.91,BR,2021-03-12 03:13:12
Plastun,44.7561,136.2939,40.91,49,0,6.49,RU,2021-03-12 03:14:13
Nelson Bay,-32.7167,152.15,79.0,73,75,10.36,AU,2021-03-12 03:14:14
Jishou,28.3167,109.7167,62.78,63,32,2.95,CN,2021-03-12 03:14:15
Udimskiy,61.1417,45.9144,0.61,95,87,8.01,RU,2021-03-12 03:14:17
Forsytheganj,52.6333,29.7333,26.62,63,100,20.02,BY,2021-03-12 03:14:18
Broken Hill,-31.95,141.4333,86.0,28,0,9.22,AU,2021-03-12 03:14:19
Esim,4.8699,-2.2405,79.43,84,100,7.52,GH,2021-03-12 03:14:20
Zatoka,46.0725,30.4654,32.0,74,75,13.42,UA,2021-03-12 03:14:22
Port Macquarie,-31.4333,152.9167,80.6,65,90,10.36,AU,2021-03-12 03:14:23
Kalininsk,51.5,44.4758,-2.76,99,42,3.27,RU,2021-03-12 03:14:24
Okhotsk,59.3833,143.3,6.3,70,0,18.59,RU,2021-03-12 03:14:25
Redwater,33.3582,-94.2544,71.6,68,90,6.91,US,2021-03-12 03:14:27
Latung,5.5,120.8833,81.68,74,100,5.12,PH,2021-03-12 03:14:28
Swan River,52.1058,-101.2676,10.4,67,53,9.22,CA,2021-03-12 03:14:29
Aklavik,68.2191,-135.0107,-4.0,71,90,18.41,CA,2021-03-12 03:14:30
Ialibu,-6.2821,143.9935,66.96,87,96,3.38,PG,2021-03-12 03:14:31
Kapuskasing,49.4169,-82.4331,15.8,86,100,17.27,CA,2021-03-12 03:14:33
Rincon,32.296,-81.2354,60.8,67,1,4.61,US,2021-03-12 03:14:34
Esmeraldas,-19.7625,-44.3139,71.6,94,0,2.3,BR,2021-03-12 03:14:35
Dogondoutchi,13.6393,4.0287,84.96,13,62,6.46,NE,2021-03-12 03:14:37
Ankazoabo,-22.2833,44.5167,70.0,87,0,5.37,MG,2021-03-12 03:14:38
Namtsy,62.7161,129.6658,-2.2,78,0,4.47,RU,2021-03-12 03:14:39
Lavrentiya,65.5833,-171.0,-4.92,74,0,5.91,RU,2021-03-12 03:14:40
Mariental,-24.6333,17.9667,69.21,18,0,8.7,NA,2021-03-12 03:14:42
Chipinge,-20.1883,32.6236,61.27,97,55,4.7,ZW,2021-03-12 03:14:44
Al Bardīyah,31.7561,25.0865,55.24,70,1,12.82,LY,2021-03-12 03:14:45
Tortolì,39.9256,9.6572,48.2,66,0,13.8,IT,2021-03-12 03:14:47
Twante,16.7167,95.9333,78.8,94,0,4.61,MM,2021-03-12 03:14:49
Bontang,0.1333,117.5,86.18,62,100,1.36,ID,2021-03-12 03:10:07
Buin,-33.7333,-70.75,70.0,63,75,6.91,CL,2021-03-12 03:14:51
Tocache,-8.1842,-76.5125,71.64,85,34,0.76,PE,2021-03-12 03:12:20
Santa Maria,-29.6842,-53.8069,60.8,94,0,1.14,BR,2021-03-12 03:10:30
Orán,-23.1322,-64.326,78.01,86,98,6.02,AR,2021-03-12 03:10:33
Tarrafal,15.2833,-23.7667,66.2,82,69,16.11,CV,2021-03-12 03:14:56
Aksay,47.26,39.87,6.8,78,0,11.18,RU,2021-03-12 03:14:58
Grand-Lahou,5.1367,-5.0242,78.73,88,100,7.36,CI,2021-03-12 03:14:59
Rocha,-34.4833,-54.3333,62.92,77,7,7.07,UY,2021-03-12 03:15:00
Golden,39.7555,-105.2211,43.0,56,75,14.97,US,2021-03-12 03:15:04
Lewistown,40.5992,-77.5714,59.0,100,90,4.61,US,2021-03-12 03:15:05
Falam,22.9167,93.6833,75.61,19,0,3.51,MM,2021-03-12 03:15:06
Yatou,37.15,122.3833,51.15,63,0,12.82,CN,2021-03-12 03:15:08
Santa Cruz de Tenerife,28.4682,-16.2546,63.0,93,20,3.44,ES,2021-03-12 03:15:10
Navalmoral de la Mata,39.8916,-5.5406,46.0,92,40,1.01,ES,2021-03-12 03:15:11
Abu Dhabi,24.4667,54.3667,69.8,46,0,5.75,AE,2021-03-12 03:15:12
Port Hedland,-20.3167,118.5667,77.0,100,75,6.91,AU,2021-03-12 03:15:13
Palora,-1.7,-77.9333,66.67,97,100,1.83,EC,2021-03-12 03:15:15
Olafsvik,64.8945,-23.7142,32.14,76,100,38.45,IS,2021-03-12 03:15:16
Biloela,-24.4167,150.5,86.68,46,46,3.62,AU,2021-03-12 03:15:17
Lubawa,53.5043,19.7497,39.99,91,48,8.01,PL,2021-03-12 03:15:19
Barcelos,41.5388,-8.6151,51.8,100,75,2.3,PT,2021-03-12 03:15:20
Mizur,42.8531,44.0531,19.4,86,98,13.42,RU,2021-03-12 03:15:21
Garoowe,8.4054,48.4845,63.72,92,41,7.07,SO,2021-03-12 03:15:22
Clarence Town,-32.5833,151.7833,79.0,73,75,10.36,AU,2021-03-12 03:15:23
Novi Pazar,43.1367,20.5122,32.04,81,100,4.05,RS,2021-03-12 03:15:25
Vila,42.0304,-8.1588,46.99,95,65,7.0,PT,2021-03-12 03:15:26
Naushki,50.3828,106.1056,32.85,70,1,3.09,RU,2021-03-12 03:15:27
Sangar,63.9242,127.4739,2.19,90,100,10.16,RU,2021-03-12 03:15:28
Ozernovskiy,51.5,156.5167,24.44,83,100,25.84,RU,2021-03-12 03:15:30
Yandyki,45.7691,47.1258,20.39,36,100,15.57,RU,2021-03-12 03:15:32
Mbigou,-1.9005,11.906,69.21,99,100,3.13,GA,2021-03-12 03:15:33
Tucumã,-0.1833,-50.05,74.43,93,100,2.64,BR,2021-03-12 03:15:35
Tupaciguara,-18.5922,-48.705,69.8,78,20,4.61,BR,2021-03-12 03:15:36
Howard Springs,-12.497,131.047,91.99,55,40,9.22,AU,2021-03-12 03:15:37
Saint-Augustin,51.226,-58.6502,32.77,99,100,10.96,CA,2021-03-12 03:15:38
San Rafael,-34.6177,-68.3301,66.72,34,86,2.77,AR,2021-03-12 03:15:40
Ozuluama de Mascareñas,21.6667,-97.85,68.9,96,0,8.52,MX,2021-03-12 03:15:41
Nioro,13.35,-15.75,74.44,12,41,7.54,GM,2021-03-12 03:15:42
Mahon,39.8885,4.2658,55.4,94,0,8.05,ES,2021-03-12 03:15:43
Hobyo,5.3505,48.5268,76.75,84,17,11.65,SO,2021-03-12 03:15:45
