City,Latitude,Longitude,Max Temperature,Humidity,Cloudiness,Wind Speed,Country,Date
Afrikanda,67.4429,32.7828,-2.42,90,18,5.53,RU,2021-03-11 06:28:53
Pontal do Paraná,-25.6533,-48.5128,59.0,99,45,3.89,BR,2021-03-11 06:28:54
Arraial do Cabo,-22.9661,-42.0278,74.44,87,100,5.35,BR,2021-03-11 06:28:55
Rikitea,-23.1203,-134.9692,79.03,74,55,20.24,PF,2021-03-11 06:23:58
Mataura,-46.1927,168.8643,55.99,62,22,5.01,NZ,2021-03-11 06:28:57
Geraldton,-28.7667,114.6,84.2,61,37,19.57,AU,2021-03-11 06:28:59
Ushuaia,-54.8,-68.3,41.0,75,75,36.82,AR,2021-03-11 06:29:26
Hilo,19.7297,-155.09,71.6,88,1,3.44,US,2021-03-11 06:29:09
Butaritari,3.0707,172.7902,81.63,76,29,10.27,KI,2021-03-11 06:29:28
San Ignacio,17.1561,-89.0714,71.6,100,75,1.83,BZ,2021-03-11 06:29:29
Chui,-33.6971,-53.4616,61.54,86,0,2.84,UY,2021-03-11 06:29:30
Cape Town,-33.9258,18.4232,66.0,88,20,6.91,ZA,2021-03-11 06:29:32
Fallon,39.4735,-118.7774,33.8,80,90,5.75,US,2021-03-11 06:29:33
Hambantota,6.1241,81.1185,87.8,66,20,8.05,LK,2021-03-11 06:29:34
Severo-Kuril'sk,50.6789,156.125,31.66,98,97,11.52,RU,2021-03-11 06:29:36
Hithadhoo,-0.6,73.0833,81.01,74,92,6.85,MV,2021-03-11 06:24:40
Chapais,49.7834,-74.8492,37.4,100,90,9.22,CA,2021-03-11 06:29:39
Jamestown,42.097,-79.2353,55.4,33,1,12.17,US,2021-03-11 06:27:06
Castro,-24.7911,-50.0119,58.37,92,2,2.57,BR,2021-03-11 06:29:41
Lewisburg,35.4492,-86.7889,61.0,58,90,9.22,US,2021-03-11 06:29:42
Saint-Pierre,-21.3393,55.4781,84.2,61,0,24.16,RE,2021-03-11 06:29:44
Gijang,35.2442,129.2139,60.8,39,0,9.22,KR,2021-03-11 06:29:45
Mahon,39.8885,4.2658,50.0,87,20,8.05,ES,2021-03-11 06:29:47
Guozhen,34.3659,107.359,63.36,39,50,5.41,CN,2021-03-11 06:29:48
Alice Springs,-23.7,133.8833,84.2,58,40,9.22,AU,2021-03-11 06:29:50
Strandby,57.4915,10.4961,37.4,93,90,26.46,DK,2021-03-11 06:29:51
Wau,7.7029,27.9953,90.97,22,91,3.27,SS,2021-03-11 06:29:52
Mar del Plata,-38.0023,-57.5575,66.99,88,0,5.75,AR,2021-03-11 06:27:46
Beira,-19.8436,34.8389,82.4,83,40,7.54,MZ,2021-03-11 06:29:54
Bluff,-46.6,168.3333,55.99,62,27,5.01,NZ,2021-03-11 06:29:56
Codrington,-38.2667,141.9667,66.74,67,58,10.74,AU,2021-03-11 06:25:08
Pirovskoye,57.6267,92.2658,35.65,86,100,18.75,RU,2021-03-11 06:29:58
São Filipe,14.8961,-24.4956,68.16,76,100,9.51,CV,2021-03-11 06:29:59
Verkhnevilyuysk,63.4453,120.3167,8.85,91,43,10.16,RU,2021-03-11 06:30:00
Liaocheng,36.4439,115.9647,50.9,74,96,10.45,CN,2021-03-11 06:30:05
Punta Arenas,-53.15,-70.9167,44.6,87,75,28.77,CL,2021-03-11 06:30:07
Noumea,-22.2763,166.4572,84.99,65,15,11.5,NC,2021-03-11 06:30:08
Tual,-5.6667,132.75,84.02,70,100,8.14,ID,2021-03-11 06:30:09
Paamiut,61.994,-49.6678,20.19,95,100,9.42,GL,2021-03-11 06:25:19
Puerto Ayora,-0.7393,-90.3518,73.99,99,100,3.58,EC,2021-03-11 06:30:11
Calapi,11.9435,125.0206,73.36,95,100,6.91,PH,2021-03-11 06:30:13
Tarpa,48.1048,22.5374,25.0,86,0,4.61,HU,2021-03-11 06:30:14
Qaanaaq,77.484,-69.3632,4.84,78,1,5.01,GL,2021-03-11 06:25:38
Atuona,-9.8,-139.0333,79.34,71,98,13.69,PF,2021-03-11 06:30:16
Saint Paul Harbor,57.79,-152.4072,28.4,43,1,26.46,US,2021-03-11 06:30:17
Yellowknife,62.456,-114.3525,-14.01,84,1,3.44,CA,2021-03-11 06:30:05
Soe,-9.8607,124.284,74.95,93,95,3.09,ID,2021-03-11 06:30:20
Thompson,55.7435,-97.8558,1.4,71,90,12.66,CA,2021-03-11 06:26:37
Dikson,73.5069,80.5464,-10.43,90,100,22.73,RU,2021-03-11 06:30:23
Scarborough,54.2797,-0.4044,46.0,87,100,7.0,GB,2021-03-11 06:30:24
Avera,33.194,-82.5271,53.6,82,1,5.75,US,2021-03-11 06:30:26
Bambanglipuro,-7.95,110.2833,84.49,70,100,8.57,ID,2021-03-11 06:30:27
Saint-Philippe,-21.3585,55.7679,84.2,61,0,24.16,RE,2021-03-11 06:30:28
Nanortalik,60.1432,-45.2371,23.61,93,100,16.58,GL,2021-03-11 06:30:29
Ribeira Grande,38.5167,-28.7,57.6,82,100,18.97,PT,2021-03-11 06:30:31
Toucheng,24.8592,121.8233,77.0,73,20,12.66,TW,2021-03-11 06:30:32
Sarai,53.7458,41.0213,-1.84,91,0,7.2,RU,2021-03-11 06:30:33
Straumen,63.8709,11.2999,33.8,55,75,26.46,NO,2021-03-11 06:30:34
Albany,42.6001,-73.9662,43.0,81,75,11.5,US,2021-03-11 06:29:02
Doha,25.2867,51.5333,78.8,41,0,12.66,QA,2021-03-11 06:30:37
Podporozh'ye,60.9112,34.1706,4.39,93,47,3.89,RU,2021-03-11 06:30:39
Bathsheba,13.2167,-59.5167,77.0,65,20,18.41,BB,2021-03-11 06:30:40
Margate,51.3813,1.3862,51.01,64,0,8.01,GB,2021-03-11 06:30:29
Kavaratti,10.5669,72.642,83.52,69,1,7.81,IN,2021-03-11 06:30:43
New Norfolk,-42.7826,147.0587,69.01,47,73,1.99,AU,2021-03-11 06:30:44
Tuktoyaktuk,69.4541,-133.0374,6.8,85,90,12.66,CA,2021-03-11 06:30:45
Bonthe,7.5264,-12.505,77.76,91,90,6.15,SL,2021-03-11 06:30:46
Najrān,17.4924,44.1277,75.2,17,0,4.61,SA,2021-03-11 06:30:49
Āsosa,10.0667,34.5333,85.37,25,0,4.81,ET,2021-03-11 06:30:50
Port Elizabeth,-33.918,25.5701,66.2,88,75,10.36,ZA,2021-03-11 06:30:51
East London,-33.0153,27.9116,73.4,68,0,10.36,ZA,2021-03-11 06:27:27
Cidreira,-30.1811,-50.2056,64.9,89,13,7.07,BR,2021-03-11 06:30:53
Manokwari,-0.8667,134.0833,82.33,77,47,9.26,ID,2021-03-11 06:30:55
Nioro,13.35,-15.75,68.09,24,29,6.8,GM,2021-03-11 06:30:56
Guácimo,10.2104,-83.6807,68.0,73,0,9.22,CR,2021-03-11 06:30:57
Masty,53.4122,24.5387,19.4,86,0,4.47,BY,2021-03-11 06:30:58
Kieta,-6.2167,155.6333,81.61,77,100,4.36,PG,2021-03-11 06:31:00
Talcahuano,-36.7167,-73.1167,55.4,100,40,5.75,CL,2021-03-11 06:31:02
Vaini,-21.2,-175.2,77.0,78,40,6.91,TO,2021-03-11 06:31:03
Mahébourg,-20.4081,57.7,84.2,58,40,12.66,MU,2021-03-11 06:31:04
Esmeralda,21.8525,-78.1169,68.0,94,40,12.66,CU,2021-03-11 06:31:08
Busselton,-33.65,115.3333,73.99,82,100,1.99,AU,2021-03-11 06:31:09
Coronel,-37.0167,-73.1333,55.4,100,40,5.75,CL,2021-03-11 06:27:37
Alta Floresta,-9.8756,-56.0861,68.88,98,100,0.22,BR,2021-03-11 06:31:11
Fairbanks,64.8378,-147.7164,19.99,86,90,11.5,US,2021-03-11 06:30:05
Smidovich,48.6,133.8167,33.21,90,0,9.66,RU,2021-03-11 06:31:14
São Miguel do Araguaia,-13.275,-50.1628,71.46,91,100,1.14,BR,2021-03-11 06:31:15
Ponta do Sol,32.6667,-17.1,55.99,70,69,1.99,PT,2021-03-11 06:31:16
Bredasdorp,-34.5322,20.0403,64.4,82,40,5.75,ZA,2021-03-11 06:31:18
Bibiani,6.4635,-2.3194,73.83,95,61,2.42,GH,2021-03-11 06:31:20
Barrow,71.2906,-156.7887,-11.2,70,1,13.8,US,2021-03-11 06:30:02
Monte Alegre de Minas,-18.8706,-48.8808,69.8,88,20,6.91,BR,2021-03-11 06:31:22
Rocha,-34.4833,-54.3333,58.42,91,0,3.02,UY,2021-03-11 06:31:23
Gizo Government Station,-8.103,156.8419,84.09,68,89,2.51,SB,2021-03-11 06:31:25
Buala,-8.145,159.5921,82.17,75,100,4.7,SB,2021-03-11 06:31:26
Lima,-12.0432,-77.0282,73.99,83,0,10.36,PE,2021-03-11 06:31:27
Anadyr,64.75,177.4833,-18.0,69,0,4.47,RU,2021-03-11 06:31:29
Saldanha,-33.0117,17.9442,62.6,78,75,11.5,ZA,2021-03-11 06:31:31
Airai,-8.9266,125.4092,67.6,100,100,1.48,TL,2021-03-11 06:31:33
Ust'-Kulom,61.6864,53.6902,5.09,93,100,4.61,RU,2021-03-11 06:31:34
Pakse,15.1167,105.7833,95.0,38,20,6.91,LA,2021-03-11 06:31:35
Prainha,-1.8,-53.48,72.16,96,100,2.19,BR,2021-03-11 06:31:37
Sueyoshichō-ninokata,31.65,131.0167,68.0,32,75,6.91,JP,2021-03-11 06:31:38
Narsaq,60.9167,-46.05,23.0,74,90,2.3,GL,2021-03-11 06:31:39
Ratne,51.6683,24.5303,21.2,79,79,2.24,UA,2021-03-11 06:31:40
Hereford,52.0568,-2.7148,48.99,92,100,1.01,GB,2021-03-11 06:31:42
Atar,20.5169,-13.0499,58.8,35,6,10.18,MR,2021-03-11 06:31:43
Saint-Leu,-21.15,55.2833,84.2,61,0,24.16,RE,2021-03-11 06:31:44
Ballina,-28.8667,153.5667,73.4,83,75,6.91,AU,2021-03-11 06:31:45
Khatanga,71.9667,102.5,-13.05,88,100,23.38,RU,2021-03-11 06:31:48
Laas,46.6166,10.7002,36.0,69,75,2.44,IT,2021-03-11 06:31:49
Namatanai,-3.6667,152.4333,82.8,71,79,3.42,PG,2021-03-11 06:31:50
Vestmanna,62.1564,-7.1664,37.4,87,75,5.75,FO,2021-03-11 06:31:52
Kapaa,22.0752,-159.319,72.0,94,90,4.61,US,2021-03-11 06:31:53
Hobart,-42.8794,147.3294,68.0,64,85,14.97,AU,2021-03-11 06:31:54
Port Alfred,-33.5906,26.891,66.0,95,100,4.0,ZA,2021-03-11 06:31:55
Omboué,-1.5746,9.2618,80.71,84,100,4.63,GA,2021-03-11 06:31:57
Florø,61.5996,5.0328,41.0,70,75,28.77,NO,2021-03-11 06:31:58
Ulaanbaatar,47.9077,106.8832,48.2,20,0,13.42,MN,2021-03-11 06:31:59
Contamana,-7.3333,-75.0167,68.72,94,0,0.4,PE,2021-03-11 06:32:00
Caravelas,-17.7125,-39.2481,72.55,90,0,6.42,BR,2021-03-11 06:32:02
Nikolskoye,59.7035,30.7861,10.0,66,0,11.18,RU,2021-03-11 06:32:03
Grindavik,63.8424,-22.4338,24.8,74,75,40.29,IS,2021-03-11 06:32:04
Genhe,50.7833,121.5167,29.16,94,0,7.87,CN,2021-03-11 06:32:05
Magsaysay,6.7667,125.1833,86.0,70,75,10.36,PH,2021-03-11 06:32:07
Laem Sing,12.4816,102.0738,90.0,66,20,5.75,TH,2021-03-11 06:32:08
Pimentel,-6.8367,-79.9342,73.99,87,72,1.99,PE,2021-03-11 06:32:09
Bambous Virieux,-20.3428,57.7575,84.2,58,40,12.66,MU,2021-03-11 06:32:10
El Salvador,13.8333,-88.9167,77.0,83,40,1.14,SV,2021-03-11 06:32:12
Saskylakh,71.9167,114.0833,-12.78,84,100,20.4,RU,2021-03-11 06:32:13
Ayutinskiy,47.77,40.14,23.0,63,0,17.9,RU,2021-03-11 06:32:14
Sambava,-14.2667,50.1667,84.51,64,14,6.67,MG,2021-03-11 06:32:15
Moţăţei,44.0833,23.2,32.0,100,90,10.36,RO,2021-03-11 06:32:17
Nemuro,43.3236,145.575,37.4,52,40,9.22,JP,2021-03-11 06:32:18
Kalmunai,7.4167,81.8167,84.63,68,97,10.4,LK,2021-03-11 06:32:20
Karratha,-20.7377,116.8463,93.29,49,0,17.43,AU,2021-03-11 06:32:21
Ahipara,-35.1667,173.1667,64.24,83,53,8.77,NZ,2021-03-11 06:32:23
Araçuaí,-16.8497,-42.0703,69.22,90,17,0.4,BR,2021-03-11 06:32:24
Gander,48.9682,-54.5906,28.4,69,40,11.5,CA,2021-03-11 06:32:26
Upernavik,72.7868,-56.1549,8.22,84,100,3.42,GL,2021-03-11 06:32:27
Hong Kong,22.2855,114.1577,80.6,54,40,14.97,HK,2021-03-11 06:31:21
Shimoda,34.6667,138.95,59.0,51,20,8.05,JP,2021-03-11 06:32:30
Tchibanga,-2.85,11.0333,75.85,94,90,0.96,GA,2021-03-11 06:32:31
Mirny,62.5353,113.9611,14.58,93,100,9.42,RU,2021-03-11 06:32:32
Katsuura,35.1333,140.3,60.01,44,20,11.5,JP,2021-03-11 06:32:33
Hermanus,-34.4187,19.2345,63.0,93,100,1.01,ZA,2021-03-11 06:32:35
Snezhnogorsk,69.1933,33.2531,10.4,56,0,8.95,RU,2021-03-11 06:32:36
Livingston,55.9029,-3.5226,45.0,76,0,16.11,GB,2021-03-11 06:32:37
Sechura,-5.5569,-80.8222,77.63,63,12,9.28,PE,2021-03-11 06:32:38
Ainaži,57.8636,24.3578,28.51,95,99,14.56,LV,2021-03-11 06:32:40
Tabuk,17.4189,121.4443,80.08,68,79,3.24,PH,2021-03-11 06:32:41
Rawson,-43.3002,-65.1023,56.07,38,0,22.08,AR,2021-03-11 06:30:51
Kaitangata,-46.2817,169.8464,57.99,66,14,4.47,NZ,2021-03-11 06:32:43
La Ronge,55.1001,-105.2842,5.0,47,0,6.91,CA,2021-03-11 06:32:44
Phitsanulok,16.9167,100.5,93.2,52,2,4.61,TH,2021-03-11 06:32:16
Manono,-7.3,27.4167,76.93,76,93,2.64,CD,2021-03-11 06:32:47
Payo,-3.7508,103.6372,87.75,62,81,5.23,ID,2021-03-11 06:32:48
Pevek,69.7008,170.3133,-15.66,78,55,17.63,RU,2021-03-11 06:32:50
Houma,29.5958,-90.7195,66.99,88,1,4.61,US,2021-03-11 06:32:51
Loei,17.4167,101.5,99.0,51,88,2.3,TH,2021-03-11 06:32:53
Kamiiso,41.8167,140.65,44.6,49,75,17.27,JP,2021-03-11 06:32:54
Antofagasta,-23.65,-70.4,66.2,82,40,3.44,CL,2021-03-11 06:32:33
Baruun-Urt,46.6806,113.2792,32.92,86,0,8.93,MN,2021-03-11 06:32:57
Tabriz,38.08,46.2919,41.0,81,75,9.22,IR,2021-03-11 06:28:37
Constitución,-35.3333,-72.4167,58.6,88,86,9.22,CL,2021-03-11 06:30:03
Sørland,67.667,12.6934,32.0,64,20,25.32,NO,2021-03-11 06:33:01
Russell,32.3502,-85.1999,53.6,81,1,2.93,US,2021-03-11 06:31:49
Mercedes,-34.6515,-59.4307,66.0,94,100,11.72,AR,2021-03-11 06:33:04
Petropavlovsk-Kamchatskiy,53.0452,158.6483,32.0,100,90,15.66,RU,2021-03-11 06:33:05
Hasaki,35.7333,140.8333,60.01,47,20,11.5,JP,2021-03-11 06:33:06
Sitka,57.0531,-135.33,39.2,70,90,14.97,US,2021-03-11 06:33:08
Leningradskiy,69.3833,178.4167,-15.14,75,0,5.06,RU,2021-03-11 06:29:16
Sartell,45.6216,-94.2069,33.8,93,90,11.5,US,2021-03-11 06:33:10
Tessalit,20.1986,1.0114,63.1,28,0,6.31,ML,2021-03-11 06:33:11
Magistral'nyy,56.1725,107.4458,36.43,83,48,10.65,RU,2021-03-11 06:33:14
Port Lincoln,-34.7333,135.8667,70.61,65,53,7.16,AU,2021-03-11 06:33:15
Bethel,41.3712,-73.414,42.8,75,90,3.44,US,2021-03-11 06:33:16
Vestmannaeyjar,63.4427,-20.2734,32.7,87,37,33.82,IS,2021-03-11 06:33:17
Iqaluit,63.7506,-68.5145,-20.0,69,40,6.91,CA,2021-03-11 06:29:55
Santa Cruz del Sur,20.7147,-77.9956,70.39,83,8,14.79,CU,2021-03-11 06:33:20
Puerto Escondido,15.85,-97.0667,76.33,69,0,4.65,MX,2021-03-11 06:33:21
Cabedelo,-6.9811,-34.8339,75.2,100,40,3.44,BR,2021-03-11 06:33:22
Usinsk,65.9939,57.5281,-2.56,92,100,13.51,RU,2021-03-11 06:33:23
San Patricio,28.017,-97.5169,73.4,88,90,21.85,US,2021-03-11 06:33:25
Fortuna,40.5982,-124.1573,41.0,100,90,6.91,US,2021-03-11 06:33:26
Ayr,55.4627,-4.6339,44.6,81,75,29.93,GB,2021-03-11 06:30:39
Santa Cruz de la Sierra,-17.8,-63.1667,73.4,94,37,4.61,BO,2021-03-11 06:33:28
Korla,41.7597,86.1469,61.3,30,20,4.81,CN,2021-03-11 06:33:29
Tanabe,33.7333,135.3667,59.0,51,40,4.61,JP,2021-03-11 06:33:31
Pisco,-13.7,-76.2167,73.0,83,91,4.61,PE,2021-03-11 06:33:32
Burgos,42.3394,-3.7079,44.6,100,90,16.11,ES,2021-03-11 06:33:33
Mitsamiouli,-11.3847,43.2844,82.4,78,20,3.44,KM,2021-03-11 06:33:34
Dingle,10.9995,122.6711,78.58,83,100,14.25,PH,2021-03-11 06:33:36
Tiksi,71.6872,128.8694,-15.16,84,100,29.8,RU,2021-03-11 06:33:37
Levice,48.2156,18.6071,28.99,66,64,5.99,SK,2021-03-11 06:33:38
Lüderitz,-26.6481,15.1594,70.83,60,0,8.46,NA,2021-03-11 06:33:41
Malanje,-9.5402,16.341,67.78,92,67,3.18,AO,2021-03-11 06:33:43
Choa Saidan Shah,32.7201,72.9849,78.64,23,100,5.95,PK,2021-03-11 06:33:44
Kaeo,-35.1,173.7833,65.25,84,0,4.03,NZ,2021-03-11 06:33:45
Villazón,-22.0866,-65.5942,45.36,76,0,2.1,BO,2021-03-11 06:33:46
Isoka,-10.1606,32.6335,70.0,85,100,2.35,ZM,2021-03-11 06:33:48
Coquimbo,-29.9533,-71.3436,59.0,94,0,1.14,CL,2021-03-11 06:31:32
Kapuskasing,49.4169,-82.4331,15.8,86,100,6.91,CA,2021-03-11 06:33:50
Mayo,38.8876,-76.5119,53.01,76,1,3.44,US,2021-03-11 06:33:51
Santa Isabel Rio Negro,-0.4139,-65.0192,71.02,97,100,1.45,BR,2021-03-11 06:33:52
Fort Frances,48.5999,-93.4003,30.2,59,90,11.5,CA,2021-03-11 06:29:49
Longyearbyen,78.2186,15.6401,24.8,93,90,4.61,SJ,2021-03-11 06:33:55
Mount Gambier,-37.8333,140.7667,73.4,49,21,17.27,AU,2021-03-11 06:33:56
Kupang,-10.1667,123.5833,87.8,70,75,8.05,ID,2021-03-11 06:33:57
Qasigiannguit,68.8193,-51.1922,15.8,73,90,0.81,GL,2021-03-11 06:33:58
Baykit,61.67,96.37,21.94,94,100,6.06,RU,2021-03-11 06:34:00
George Town,5.4112,100.3354,93.0,58,20,10.36,MY,2021-03-11 06:34:01
Romitan,39.9343,64.3814,48.2,40,0,4.61,UZ,2021-03-11 06:34:02
Port Hedland,-20.3167,118.5667,89.6,70,57,13.8,AU,2021-03-11 06:34:04
Cairns,-16.9167,145.7667,86.0,62,22,18.41,AU,2021-03-11 06:34:05
Nishihara,26.1842,127.7558,75.2,56,40,12.66,JP,2021-03-11 06:34:06
Marrakesh,31.6315,-8.0083,46.4,93,0,5.75,MA,2021-03-11 06:30:10
Torbay,47.6666,-52.7314,28.0,93,20,23.02,CA,2021-03-11 06:34:08
Sola,-13.8833,167.55,80.6,94,90,16.64,VU,2021-03-11 06:34:10
Hueyapan,18.8667,-98.6667,56.93,38,0,2.33,MX,2021-03-11 06:34:11
Norman Wells,65.282,-126.8329,14.0,67,75,13.8,CA,2021-03-11 06:34:12
Sultānpur,26.2667,82.0667,98.35,10,0,6.24,IN,2021-03-11 06:34:13
Yangi Marg`ilon,40.4272,71.7189,50.0,62,75,11.5,UZ,2021-03-11 06:34:15
Namtsy,62.7161,129.6658,12.2,57,40,11.18,RU,2021-03-11 06:34:16
Guerrero Negro,27.9769,-114.0611,55.54,78,1,11.95,MX,2021-03-11 06:31:12
Eshowe,-28.8865,31.4699,78.31,55,0,6.78,ZA,2021-03-11 06:34:18
Ambovombe,-25.1667,46.0833,85.89,52,0,5.28,MG,2021-03-11 06:34:19
Faanui,-16.4833,-151.75,82.26,75,0,11.34,PF,2021-03-11 06:34:21
Road Town,18.4167,-64.6167,75.99,80,0,13.0,VG,2021-03-11 06:34:22
Vila Velha,-20.3297,-40.2925,71.6,94,90,4.61,BR,2021-03-11 06:34:23
Kruisfontein,-34.0033,24.7314,64.0,93,100,1.01,ZA,2021-03-11 06:34:25
Voh,-20.9667,164.7,75.88,79,67,5.26,NC,2021-03-11 06:34:26
Myatlevo,54.8969,35.6762,-2.2,55,0,2.24,RU,2021-03-11 06:34:27
La Unión,-5.4,-80.75,79.83,56,14,9.91,PE,2021-03-11 06:34:29
Gunjur,13.2019,-16.7339,66.2,63,100,10.36,GM,2021-03-11 06:34:30
Sur,22.5667,59.5289,89.94,24,0,5.86,OM,2021-03-11 06:34:31
Xingyi,24.1877,102.817,73.76,21,0,14.74,CN,2021-03-11 06:34:33
Hofn,64.2539,-15.2082,37.42,76,19,10.87,IS,2021-03-11 06:34:34
Arrondissement de Langres,47.8333,5.3333,50.0,66,90,14.97,FR,2021-03-11 06:34:36
Luau,-10.7073,22.2247,71.44,88,15,1.01,AO,2021-03-11 06:34:38
Cabo San Lucas,22.8909,-109.9124,66.0,68,0,0.87,MX,2021-03-11 06:33:05
Avarua,-21.2078,-159.775,77.0,88,85,2.3,CK,2021-03-11 06:34:40
Hays,30.0502,-98.0336,69.01,92,100,7.0,US,2021-03-11 06:31:11
Sierra Vista,31.5545,-110.3037,46.0,28,1,10.36,US,2021-03-11 06:34:42
Le Port,-20.9373,55.2919,84.2,65,0,19.57,RE,2021-03-11 06:34:44
Leh,34.1667,77.5833,30.36,63,98,3.27,IN,2021-03-11 06:34:45
Te Anau,-45.4167,167.7167,55.56,70,6,4.34,NZ,2021-03-11 06:34:46
Chany,55.3121,76.7647,17.71,94,100,17.4,RU,2021-03-11 06:34:48
Ngunguru,-35.6167,174.5,66.76,79,22,8.19,NZ,2021-03-11 06:34:49
Simpsonville,34.7371,-82.2543,60.8,44,1,9.22,US,2021-03-11 06:27:47
Amroha,28.9167,78.4667,95.85,11,0,2.42,IN,2021-03-11 06:34:51
São João da Barra,-21.6403,-41.0511,73.17,90,96,8.28,BR,2021-03-11 06:34:52
Garden City,42.3256,-83.331,66.2,51,90,21.85,US,2021-03-11 06:34:54
Manaus,-3.1019,-60.025,75.2,94,75,5.75,BR,2021-03-11 06:33:54
Uren',57.4552,45.7852,10.18,94,100,9.69,RU,2021-03-11 06:32:11
Kavieng,-2.5744,150.7967,84.15,62,55,6.26,PG,2021-03-11 06:34:57
Klaksvík,62.2266,-6.589,37.4,87,75,5.75,FO,2021-03-11 06:34:58
Bengkulu,-3.8004,102.2655,84.97,68,100,9.1,ID,2021-03-11 06:35:00
Finnsnes,69.2296,17.9811,-7.6,84,0,7.31,NO,2021-03-11 06:35:01
Turukhansk,65.8167,87.9833,-6.52,87,49,8.72,RU,2021-03-11 06:35:03
Souillac,-20.5167,57.5167,84.2,58,40,12.66,MU,2021-03-11 06:35:05
Balkhash,46.844,74.9804,32.0,64,0,11.18,KZ,2021-03-11 06:35:06
Meulaboh,4.1363,96.1285,86.81,58,2,7.7,ID,2021-03-11 06:35:07
Salamiyah,35.0113,37.0532,64.6,45,4,26.53,SY,2021-03-11 06:35:08
San Juan,-31.5375,-68.5364,79.74,45,96,10.47,AR,2021-03-11 06:35:10
Beringovskiy,63.05,179.3167,-7.49,85,0,2.37,RU,2021-03-11 06:35:11
Mēga,4.05,38.3,74.82,38,0,19.42,ET,2021-03-11 06:35:12
Esperance,-33.8667,121.9,86.0,39,40,8.05,AU,2021-03-11 06:35:13
Maïné Soroa,13.2114,12.0241,83.95,13,95,8.9,NE,2021-03-11 06:35:16
Labuhan,-6.8844,112.2051,83.93,74,50,13.0,ID,2021-03-11 06:35:17
Grants Pass,42.439,-123.3284,39.99,81,90,0.96,US,2021-03-11 06:33:44
Makakilo City,21.3469,-158.0858,71.01,100,90,5.75,US,2021-03-11 06:35:19
Kenai,60.5544,-151.2583,27.0,93,90,5.75,US,2021-03-11 06:35:20
Yerbogachën,61.2767,108.0108,19.8,96,100,7.18,RU,2021-03-11 06:35:22
Alta,69.9689,23.2717,10.4,67,0,6.91,NO,2021-03-11 06:35:24
Ciudad del Carmen,18.6333,-91.8333,76.32,78,7,15.86,MX,2021-03-11 06:30:52
Ust-Kuyga,70.0167,135.6,-6.12,85,100,0.54,RU,2021-03-11 06:35:27
Nuuk,64.1835,-51.7216,21.2,79,75,2.3,GL,2021-03-11 06:35:28
Nouadhibou,20.931,-17.0347,59.0,77,0,20.71,MR,2021-03-11 06:35:29
Beyneu,45.3167,55.2,27.07,70,99,10.56,KZ,2021-03-11 06:35:31
Ubari,26.5921,12.7805,68.83,33,100,18.59,LY,2021-03-11 06:35:33
Launceston,-41.45,147.1667,73.99,43,0,12.66,AU,2021-03-11 06:35:34
Clyde River,70.4692,-68.5914,-7.6,77,90,11.5,CA,2021-03-11 06:35:35
Broome,42.2506,-75.833,44.6,65,1,9.22,US,2021-03-11 06:35:37
Aktau,43.65,51.2,28.4,54,0,15.66,KZ,2021-03-11 06:35:38
Aswān,24.0934,32.907,83.61,23,0,7.96,EG,2021-03-11 06:35:40
Egvekinot,66.3167,-179.1667,-31.63,88,16,0.94,RU,2021-03-11 06:35:16
Vila Franca do Campo,37.7167,-25.4333,60.8,88,75,16.11,PT,2021-03-11 06:35:42
Itarema,-2.9248,-39.9167,76.66,88,52,10.33,BR,2021-03-11 06:31:38
Touros,-5.1989,-35.4608,75.2,94,40,3.44,BR,2021-03-11 06:35:44
Honningsvåg,70.9821,25.9704,15.8,67,0,31.07,NO,2021-03-11 06:35:46
Cherskiy,68.75,161.3,-1.34,87,100,13.42,RU,2021-03-11 06:35:47
São Domingos do Maranhão,-5.5758,-44.3853,70.79,96,100,1.23,BR,2021-03-11 06:35:48
Tymovskoye,50.8456,142.655,26.29,95,98,8.86,RU,2021-03-11 06:33:15
Khovd,48.0056,91.6419,40.96,51,100,4.25,MN,2021-03-11 06:35:50
Deputatsky,69.3,139.9,-3.35,91,100,9.89,RU,2021-03-11 06:35:52
San Felipe,10.3399,-68.7425,70.09,90,98,4.99,VE,2021-03-11 06:35:53
Kushiro,42.975,144.3747,33.8,64,20,14.97,JP,2021-03-11 06:35:54
Comodoro Rivadavia,-45.8667,-67.5,53.6,37,16,37.98,AR,2021-03-11 06:35:56
Lander,42.833,-108.7307,23.0,79,1,3.44,US,2021-03-11 06:31:12
Lorengau,-2.0226,147.2712,84.24,65,100,8.01,PG,2021-03-11 06:35:58
Kununurra,-15.7667,128.7333,78.8,94,90,9.64,AU,2021-03-11 06:36:00
Isangel,-19.55,169.2667,80.6,65,75,6.91,VU,2021-03-11 06:36:02
Alamosa,37.4695,-105.87,17.6,73,1,8.05,US,2021-03-11 06:36:03
Sindor,62.8629,51.8905,12.97,96,100,6.69,RU,2021-03-11 06:36:04
Mersing,2.4312,103.8405,87.8,70,40,10.36,MY,2021-03-11 06:36:05
Beloha,-25.1667,45.05,88.38,49,0,7.38,MG,2021-03-11 06:36:07
Zaozyornoye,45.1582,33.2787,30.99,68,100,1.01,UA,2021-03-11 06:36:08
Carnarvon,-24.8667,113.6333,84.2,70,0,12.66,AU,2021-03-11 06:36:09
Sharjah city,25.3573,55.4033,77.0,64,0,5.75,AE,2021-03-11 06:35:48
Nome,64.5011,-165.4064,-18.4,69,75,2.57,US,2021-03-11 06:36:12
Puerto Colombia,10.9878,-74.9547,77.0,83,75,11.5,CO,2021-03-11 06:36:13
Amboasary,-25.0333,46.3833,84.2,65,20,21.85,MG,2021-03-11 06:36:14
Tura,25.5198,90.2201,91.45,22,0,6.71,IN,2021-03-11 06:36:15
Sabha,27.0377,14.4283,66.49,37,100,21.3,LY,2021-03-11 06:36:17
Tegul'det,57.3064,88.1667,23.13,94,100,18.9,RU,2021-03-11 06:36:18
Puerto del Rosario,28.5004,-13.8627,64.4,77,75,18.41,ES,2021-03-11 06:36:19
Nago,26.5881,127.9761,75.2,60,20,9.22,JP,2021-03-11 06:36:21
Dubno,50.4169,25.7343,28.99,93,90,8.95,UA,2021-03-11 06:36:22
Indianapolis,39.7684,-86.158,64.99,55,90,14.97,US,2021-03-11 06:36:23
Etchojoa,26.9167,-109.6333,64.0,86,100,7.31,MX,2021-03-11 06:36:25
Chokurdakh,70.6333,147.9167,-15.14,86,100,6.22,RU,2021-03-11 06:36:26
Daitari,21.1,85.75,95.9,21,36,7.34,IN,2021-03-11 06:36:27
Vicuña,-30.0319,-70.7081,59.0,94,0,1.14,CL,2021-03-11 06:36:29
Cao Bang,22.6667,106.25,81.48,57,4,7.74,VN,2021-03-11 06:36:30
Viedma,-40.8135,-62.9967,61.95,37,1,11.83,AR,2021-03-11 06:36:06
Mariel,22.9875,-82.7536,57.2,88,20,1.14,CU,2021-03-11 06:36:33
Juneau,58.3019,-134.4197,33.8,86,90,12.66,US,2021-03-11 06:34:32
Pacific Grove,36.6177,-121.9166,46.99,76,75,5.75,US,2021-03-11 06:33:52
Port Hardy,50.6996,-127.4199,42.8,93,1,4.61,CA,2021-03-11 06:36:36
Tasiilaq,65.6145,-37.6368,15.8,62,20,9.22,GL,2021-03-11 06:36:37
Mehamn,71.0357,27.8492,12.2,73,0,17.27,NO,2021-03-11 06:36:38
Krasnokholmskiy,55.9873,55.0466,-3.87,90,39,7.4,RU,2021-03-11 06:36:40
Placerville,38.7296,-120.7986,39.0,100,90,3.85,US,2021-03-11 06:36:41
Tuatapere,-46.1333,167.6833,55.99,63,0,5.01,NZ,2021-03-11 06:36:42
Denpasar,-8.65,115.2167,87.8,74,20,9.22,ID,2021-03-11 06:36:03
Zaozhuang,34.8647,117.5542,44.8,84,100,10.54,CN,2021-03-11 06:35:04
Narnaul,28.0444,76.1083,93.61,11,0,4.09,IN,2021-03-11 06:36:46
Sokółka,53.4072,23.5023,35.01,86,0,4.47,PL,2021-03-11 06:36:47
Sept-Îles,50.2001,-66.3821,32.0,80,90,5.75,CA,2021-03-11 06:35:24
Verāval,20.9,70.3667,83.7,45,0,10.85,IN,2021-03-11 06:36:50
Diu,20.7141,70.9822,87.94,28,0,10.67,IN,2021-03-11 06:36:51
Madang,-5.2246,145.7966,83.97,68,96,7.81,PG,2021-03-11 06:36:52
Provideniya,64.3833,-173.3,-11.2,70,0,4.47,RU,2021-03-11 06:36:54
Jalu,29.0331,21.5482,66.06,55,57,13.31,LY,2021-03-11 06:36:55
Talnakh,69.4865,88.3972,-22.54,84,96,7.09,RU,2021-03-11 06:33:12
Lakeside,30.13,-81.7682,57.2,93,90,3.83,US,2021-03-11 06:36:57
Amapala,13.2922,-87.6539,78.44,66,16,5.66,HN,2021-03-11 06:36:59
Luena,-11.7833,19.9167,68.0,83,0,5.75,AO,2021-03-11 06:37:00
Buchanan,5.8808,-10.0467,77.0,94,40,6.91,LR,2021-03-11 06:37:01
Pervomays'k,48.0443,30.8507,27.97,85,100,9.57,UA,2021-03-11 06:37:02
Itanagar,27.1,93.6167,71.6,83,75,3.44,IN,2021-03-11 06:37:04
Azul,-36.777,-59.8585,66.99,82,100,3.0,AR,2021-03-11 06:37:05
Ostrovnoy,68.0531,39.5131,4.6,86,56,21.39,RU,2021-03-11 06:37:07
Bontang,0.1333,117.5,83.5,68,100,8.34,ID,2021-03-11 06:37:09
Muhororo,0.9381,30.7594,82.02,36,33,5.64,UG,2021-03-11 06:37:10
Lavrentiya,65.5833,-171.0,-18.0,76,0,5.59,RU,2021-03-11 06:37:12
Kīhei,20.785,-156.4656,71.6,88,20,2.06,US,2021-03-11 06:33:03
Le Passage,44.2014,0.6028,54.0,100,0,3.44,FR,2021-03-11 06:37:15
Kahului,20.8947,-156.47,71.6,88,20,2.77,US,2021-03-11 06:37:16
Prince Rupert,54.3161,-130.3201,39.2,86,75,2.3,CA,2021-03-11 06:37:17
Westport,41.1415,-73.3579,42.01,93,75,3.44,US,2021-03-11 06:32:22
Prado,-17.3411,-39.2208,72.45,89,2,7.43,BR,2021-03-11 06:32:44
Moranbah,-22.0016,148.0466,88.77,42,86,14.07,AU,2021-03-11 06:37:21
Sobolevo,54.4299,31.8996,7.5,94,80,9.46,RU,2021-03-11 06:37:23
Altamont,42.2068,-121.7372,28.99,93,40,5.35,US,2021-03-11 06:37:24
Ugoofaaru,5.6667,73.0,83.41,67,0,6.29,MV,2021-03-11 06:37:26
Richards Bay,-28.783,32.0377,79.81,60,0,7.78,ZA,2021-03-11 06:37:27
Dabat,12.9842,37.765,69.39,29,0,6.06,ET,2021-03-11 06:37:28
Bourail,-21.5667,165.4833,77.05,72,2,5.79,NC,2021-03-11 06:37:30
Katangli,51.7102,143.2326,27.18,95,100,10.63,RU,2021-03-11 06:37:31
Kasongo-Lunda,-6.4667,16.8167,76.41,82,1,1.79,CD,2021-03-11 06:37:32
Vao,-22.6667,167.4833,77.63,71,48,17.13,NC,2021-03-11 06:37:34
Yaan,7.3833,8.5667,81.16,70,76,9.24,NG,2021-03-11 06:37:35
Oneida,43.2001,-75.4663,46.4,53,1,9.22,US,2021-03-11 06:37:36
Morón,-34.6534,-58.6198,73.99,69,86,9.91,AR,2021-03-11 06:33:12
Palu,-0.8917,119.8707,82.2,72,99,4.76,ID,2021-03-11 06:37:39
Morondava,-20.2833,44.2833,81.82,65,0,2.46,MG,2021-03-11 06:37:40
Santa Lucía,27.9117,-15.5407,62.6,67,40,20.71,ES,2021-03-11 06:37:41
Batalha,-9.6778,-37.1247,74.08,85,5,6.51,BR,2021-03-11 06:37:43
São José do Egito,-7.4789,-37.2744,67.03,90,88,6.02,BR,2021-03-11 06:37:44
Ancud,-41.8697,-73.8203,51.01,100,40,8.05,CL,2021-03-11 06:37:45
Pechenga,69.5259,31.1703,5.0,78,0,14.97,RU,2021-03-11 06:37:46
Lubyany,56.0378,51.4,-5.8,77,75,11.18,RU,2021-03-11 06:37:49
Esil,51.9556,66.4042,6.78,92,100,22.35,KZ,2021-03-11 06:37:50
Safita,34.8205,36.1153,68.0,53,34,5.99,SY,2021-03-11 06:37:51
Gayny,60.3071,54.3241,1.83,92,100,3.85,RU,2021-03-11 06:37:53
Matagami,49.7502,-77.6328,21.2,93,90,11.5,CA,2021-03-11 06:37:54
Vilyuysk,63.7553,121.6247,6.84,91,60,8.93,RU,2021-03-11 06:37:55
Aliwal North,-30.6937,26.7114,69.93,37,0,3.22,ZA,2021-03-11 06:37:26
Skellefteå,64.7507,20.9528,16.0,86,75,10.36,SE,2021-03-11 06:37:59
Rio Claro,-22.4114,-47.5614,64.92,94,0,3.56,BR,2021-03-11 06:38:00
Buin,-33.7333,-70.75,66.0,67,0,3.44,CL,2021-03-11 06:38:01
Aktash,50.3,87.7333,29.77,94,58,4.52,RU,2021-03-11 06:38:03
Kisangani,0.5167,25.2,80.13,73,0,3.47,CD,2021-03-11 06:38:04
Olinda,-8.0089,-34.8553,78.8,73,40,4.61,BR,2021-03-11 06:38:05
Atbasar,51.8,68.3333,12.34,92,70,22.82,KZ,2021-03-11 06:38:06
Panjakent,39.4952,67.6093,46.4,66,2,4.61,TJ,2021-03-11 06:38:08
Alofi,-19.0595,-169.9187,77.0,73,68,2.3,NU,2021-03-11 06:38:09
Saint-François,46.4154,3.9054,53.01,66,90,9.22,FR,2021-03-11 06:38:10
Mazagão,-0.115,-51.2894,75.2,94,0,2.28,BR,2021-03-11 06:38:11
Örnsköldsvik,63.2909,18.7153,26.6,74,90,14.97,SE,2021-03-11 06:36:19
Shache,38.4167,77.2406,60.51,30,100,13.49,CN,2021-03-11 06:38:14
Mount Isa,-20.7333,139.5,84.2,61,40,4.61,AU,2021-03-11 06:38:15
Tshikapa,-6.4167,20.8,77.76,78,0,3.33,CD,2021-03-11 06:38:16
Grand-Lahou,5.1367,-5.0242,79.27,87,100,8.05,CI,2021-03-11 06:38:18
Soloneshnoye,51.6544,84.3197,29.79,92,100,7.92,RU,2021-03-11 06:38:19
Booué,-0.0921,11.9385,75.99,91,100,4.99,GA,2021-03-11 06:38:20
Arman',59.7,150.1667,2.59,92,99,2.19,RU,2021-03-11 06:38:22
Lagoa,39.05,-27.9833,55.81,75,100,15.97,PT,2021-03-11 06:38:23
Kiryat Gat,31.61,34.7642,64.99,12,30,1.99,IL,2021-03-11 06:38:24
Lakes Entrance,-37.8811,147.981,81.0,47,100,11.99,AU,2021-03-11 06:38:26
Vikhorevka,56.1201,101.1636,30.2,51,100,8.95,RU,2021-03-11 06:38:28
Blagoyevo,63.3667,47.9167,13.03,92,5,10.18,RU,2021-03-11 06:38:29
Morrinhos,-17.7311,-49.0994,64.72,95,99,2.48,BR,2021-03-11 06:38:30
Sokolo,14.7328,-6.1219,73.56,18,81,12.17,ML,2021-03-11 06:38:34
Lebu,-37.6167,-73.65,54.3,88,1,5.41,CL,2021-03-11 06:38:35
Praia,14.9215,-23.5087,66.2,72,20,20.71,CV,2021-03-11 06:38:38
Lázaro Cárdenas,17.9583,-102.2,69.26,85,0,3.6,MX,2021-03-11 06:38:39
Wagar,16.1525,36.2032,87.21,40,0,11.54,SD,2021-03-11 06:38:40
Kushmurun,52.4503,64.6311,9.59,93,100,20.42,KZ,2021-03-11 06:38:42
Port Blair,11.6667,92.75,86.0,100,20,9.22,IN,2021-03-11 06:38:43
Marsaxlokk,35.8419,14.5431,55.0,76,0,10.36,MT,2021-03-11 06:38:44
Lokosovo,61.1333,74.8167,-8.68,89,100,6.29,RU,2021-03-11 06:38:46
Acapulco de Juárez,16.8634,-99.8901,74.03,71,0,3.38,MX,2021-03-11 06:38:47
Te Horo,-40.8084,175.1233,63.0,66,88,7.0,NZ,2021-03-11 06:38:48
Distrikt Brokopondo,4.75,-55.1667,74.88,89,78,7.99,SR,2021-03-11 06:38:50
Balabac,7.9868,117.0645,83.23,69,100,12.8,PH,2021-03-11 06:38:51
Portland,45.5234,-122.6762,44.6,70,20,5.75,US,2021-03-11 06:28:27
Wexford,52.3342,-6.4575,44.01,83,100,4.0,IE,2021-03-11 06:38:54
San Policarpo,12.1791,125.5072,77.61,90,100,22.01,PH,2021-03-11 06:38:56
Derzhavīnsk,51.1,66.3167,6.69,93,83,23.58,KZ,2021-03-11 06:38:57
Kinsale,51.7075,-8.5306,41.0,81,40,17.27,IE,2021-03-11 06:38:58
Eilat,29.5581,34.9482,73.4,40,0,3.96,IL,2021-03-11 06:39:00
Tàrrega,41.647,1.1396,46.0,93,20,1.14,ES,2021-03-11 06:39:01
Flinders,-34.5833,150.8552,75.99,74,100,4.0,AU,2021-03-11 06:39:02
Jinan,36.6683,116.9972,52.2,61,91,5.5,CN,2021-03-11 06:39:03
Apollonia,36.9716,24.7231,59.0,77,40,10.36,GR,2021-03-11 06:39:05
Takoradze,4.8845,-1.7554,79.77,87,100,6.67,GH,2021-03-11 06:39:06
Arrondissement de Mont-de-Marsan,44.0,-0.6667,51.8,62,0,4.07,FR,2021-03-11 06:39:07
Oxbow,49.2333,-102.1676,28.4,86,90,20.71,CA,2021-03-11 06:39:08
Mwanza,-2.5167,32.9,73.4,68,0,6.69,TZ,2021-03-11 06:39:10
Strezhevoy,60.7333,77.5889,-7.6,71,0,6.71,RU,2021-03-11 06:39:11
Belgrade,44.804,20.4651,35.01,80,0,3.44,RS,2021-03-11 06:39:12
Ambilobe,-13.2,49.05,87.53,69,0,0.56,MG,2021-03-11 06:39:13
Aksarayskiy,46.7924,48.0119,19.4,53,0,6.71,RU,2021-03-11 06:39:15
Marzuq,14.4,46.4667,80.6,15,0,3.89,YE,2021-03-11 06:39:16
Taltal,-25.4,-70.4833,64.29,79,5,2.68,CL,2021-03-11 06:39:17
Rio Grande,-32.035,-52.0986,59.0,97,14,4.36,BR,2021-03-11 06:39:19
Namanyere,-7.5167,31.05,70.54,79,98,3.04,TZ,2021-03-11 06:39:20
Salinas,36.6777,-121.6555,46.4,81,90,3.87,US,2021-03-11 06:39:21
San Miguel de Cozumel,20.5083,-86.9458,77.0,73,40,12.66,MX,2021-03-11 06:39:22
Cabra,37.4725,-4.4421,44.01,81,0,2.28,ES,2021-03-11 06:39:24
Kumul,42.8,93.45,64.71,24,100,4.38,CN,2021-03-11 06:39:25
Naze,28.3667,129.4833,69.8,60,75,13.8,JP,2021-03-11 06:39:26
Inta,66.0317,60.1659,-3.17,88,100,9.66,RU,2021-03-11 06:39:27
Honiara,-9.4333,159.95,81.5,77,100,3.49,SB,2021-03-11 06:39:29
Sarangani,5.4033,125.4636,79.66,80,100,4.81,PH,2021-03-11 06:39:30
Mitú,1.1983,-70.1733,71.22,98,100,0.83,CO,2021-03-11 06:39:31
Umeå,63.8284,20.2597,19.4,100,90,20.71,SE,2021-03-11 06:39:33
Bereda,43.2686,-7.5406,53.01,95,100,11.01,ES,2021-03-11 06:39:34
Vardø,70.3705,31.1107,10.4,79,20,28.77,NO,2021-03-11 06:39:36
Qaqortoq,60.7167,-46.0333,23.0,74,90,2.3,GL,2021-03-11 06:39:37
Araguaçu,-12.9306,-49.8264,71.94,89,100,1.92,BR,2021-03-11 06:39:38
Henties Bay,-22.116,14.2845,67.05,79,0,3.24,NA,2021-03-11 06:39:40
Shingū,33.7333,135.9833,59.0,51,40,4.61,JP,2021-03-11 06:39:41
Kiama,-34.6833,150.8667,75.99,75,100,13.0,AU,2021-03-11 06:39:42
Ulaangom,49.9811,92.0667,17.31,94,100,3.62,MN,2021-03-11 06:39:43
Jijiga,9.35,42.8,75.16,34,0,11.01,ET,2021-03-11 06:39:45
Kailua,21.4022,-157.7394,71.6,83,75,4.61,US,2021-03-11 06:39:46
Bela,25.9333,81.9833,99.73,10,0,5.55,IN,2021-03-11 06:39:47
Rongcheng,30.634,117.8517,53.8,90,100,3.42,CN,2021-03-11 06:39:48
Hauterive,46.0901,3.4459,53.01,66,75,10.36,FR,2021-03-11 06:39:52
Sibolga,1.7427,98.7792,86.56,61,100,5.95,ID,2021-03-11 06:39:53
Zhangjiakou,40.81,114.8794,58.53,37,40,7.36,CN,2021-03-11 06:39:54
Chul'man,56.8479,124.9104,19.98,91,77,8.1,RU,2021-03-11 06:39:55
Qobustan,40.0824,49.412,42.8,75,90,13.8,AZ,2021-03-11 06:39:57
Shenjiamen,29.9576,122.298,54.05,97,100,9.08,CN,2021-03-11 06:39:58
Mārkāpur,15.7333,79.2833,96.53,19,0,9.64,IN,2021-03-11 06:39:59
Hirara,24.8,125.2833,77.0,61,20,13.8,JP,2021-03-11 06:40:00
Praia,14.9215,-23.5087,66.2,72,20,20.71,CV,2021-03-11 06:40:02
Carlisle,40.2015,-77.1889,50.0,64,100,1.01,US,2021-03-11 06:40:11
Aksu,41.1231,80.2644,60.15,30,100,6.93,CN,2021-03-11 06:40:12
Boende,-0.2167,20.8667,79.54,78,90,2.53,CD,2021-03-11 06:40:14
Hervey Bay,-25.2986,152.8535,81.0,61,40,9.22,AU,2021-03-11 06:40:15
Jinxiang,27.4327,120.6062,61.65,77,24,3.02,CN,2021-03-11 06:40:16
Iracoubo,5.4802,-53.2011,76.84,88,99,12.01,GF,2021-03-11 06:40:17
Galesong,-5.3166,119.3661,82.4,78,20,4.61,ID,2021-03-11 06:40:18
Moindou,-21.6924,165.677,80.6,69,9,10.36,NC,2021-03-11 06:40:20
Nizhniy Tsasuchey,50.5167,115.1333,33.71,86,0,3.18,RU,2021-03-11 06:40:21
Brae,60.3964,-1.353,44.6,87,75,9.22,GB,2021-03-11 06:40:22
Pangnirtung,66.1451,-65.7125,-13.25,84,100,2.19,CA,2021-03-11 06:40:24
Orapa,-21.2833,25.3667,80.65,39,70,7.27,BW,2021-03-11 06:40:26
Bequimão,-2.4489,-44.7825,78.8,94,75,3.44,BR,2021-03-11 06:40:29
Chegdomyn,51.1167,133.0167,28.51,89,86,3.36,RU,2021-03-11 06:40:30
Duluth,46.7833,-92.1066,32.0,93,90,28.77,US,2021-03-11 06:40:32
Chernyshevskiy,63.0128,112.4714,10.89,95,100,8.48,RU,2021-03-11 06:40:33
Lewistown,40.5992,-77.5714,48.0,65,1,2.1,US,2021-03-11 06:40:34
Hamilton,39.1834,-84.5333,62.01,48,77,15.68,US,2021-03-11 06:38:56
Hobyo,5.3505,48.5268,83.62,64,41,18.05,SO,2021-03-11 06:40:36
Petropavlovka,50.6114,105.3196,32.54,92,7,1.14,RU,2021-03-11 06:40:38
Port-de-Bouc,43.4,4.9833,46.4,87,0,4.61,FR,2021-03-11 06:40:39
Bellmead,31.594,-97.1089,69.8,78,90,16.11,US,2021-03-11 06:40:40
Basoko,1.2391,23.616,81.18,67,0,4.45,CD,2021-03-11 06:40:41
Liku,-0.7275,119.8922,83.39,67,96,6.53,ID,2021-03-11 06:40:43
Nhulunbuy,-12.2333,136.7667,78.8,94,75,8.05,AU,2021-03-11 06:40:44
Araucária,-25.5931,-49.4103,61.0,100,75,3.44,BR,2021-03-11 06:40:45
Pedana,16.2667,81.1667,91.4,55,20,11.5,IN,2021-03-11 06:40:46
Tomarovka,50.6834,36.2331,10.4,85,40,11.18,RU,2021-03-11 06:40:48
Ladário,-19.0047,-57.6017,70.16,66,0,1.3,BR,2021-03-11 06:40:49
Bairiki Village,1.3292,172.9752,80.6,78,75,9.22,KI,2021-03-11 06:40:50
Khani,41.9563,42.9566,50.0,57,75,27.63,GE,2021-03-11 06:40:51
Kadnikov,59.5022,40.338,6.17,93,60,4.99,RU,2021-03-11 06:40:53
Okahandja,-21.9833,16.9167,72.0,29,0,3.44,NA,2021-03-11 06:40:54
Zvishavane,-20.3267,30.0665,78.22,43,0,2.21,ZW,2021-03-11 06:40:55
Praia da Vitória,38.7333,-27.0667,55.99,100,90,14.32,PT,2021-03-11 06:40:57
Srīvardhan,18.0333,73.0167,86.23,47,0,11.05,IN,2021-03-11 06:40:58
Polyarny,69.1989,33.4478,10.4,56,0,8.95,RU,2021-03-11 06:40:59
Champerico,14.3,-91.9167,62.01,92,17,1.01,GT,2021-03-11 06:41:00
Harper,4.375,-7.7169,79.21,87,100,5.95,LR,2021-03-11 06:41:01
Domoni,-12.2569,44.5319,84.0,71,90,3.42,KM,2021-03-11 06:41:03
Bodden Town,19.2833,-81.25,77.0,1,24,27.0,KY,2021-03-11 06:41:05
Asău,46.4333,26.4,30.99,58,79,3.27,RO,2021-03-11 06:41:06
Evensk,61.95,159.2333,-9.83,88,90,5.12,RU,2021-03-11 06:41:07
Foumbot,5.5079,10.6356,72.59,66,100,1.88,CM,2021-03-11 06:41:09
Wajima,37.4,136.9,51.8,54,0,4.61,JP,2021-03-11 06:41:10
Okhotsk,59.3833,143.3,7.56,92,100,1.12,RU,2021-03-11 06:41:11
Pulandian,39.3953,121.9669,46.99,75,100,6.71,CN,2021-03-11 06:41:12
Nabire,-3.3667,135.4833,84.34,67,99,4.12,ID,2021-03-11 06:41:14
Nanfeng,23.7434,111.7959,79.52,63,69,2.28,CN,2021-03-11 06:41:17
Wanaka,-44.7,169.15,60.22,66,37,2.13,NZ,2021-03-11 06:41:18
Turaif,31.6725,38.6637,68.0,30,0,11.5,SA,2021-03-11 06:41:20
Weligama,5.9667,80.4167,85.08,61,99,4.61,LK,2021-03-11 06:41:21
Carutapera,-1.195,-46.02,75.18,91,89,2.93,BR,2021-03-11 06:41:22
Carquefou,47.2982,-1.4902,52.0,93,75,20.71,FR,2021-03-11 06:41:23
Charter Township of Clinton,42.587,-82.9199,61.0,58,90,13.8,US,2021-03-11 06:41:25
Mahanoro,-19.9,48.8,81.73,71,0,4.41,MG,2021-03-11 06:41:26
Valdemārpils,57.3707,22.5919,26.6,100,90,6.91,LV,2021-03-11 06:41:27
Ponta Delgada,37.7333,-25.6667,60.8,88,75,16.11,PT,2021-03-11 06:36:53
Bandarbeyla,9.4942,50.8122,80.8,64,3,11.41,SO,2021-03-11 06:41:32
Srednekolymsk,67.45,153.6833,-2.06,89,34,7.67,RU,2021-03-11 06:41:33
Merritt Island,28.5392,-80.672,61.0,72,43,6.64,US,2021-03-11 06:41:34
Cockburn Town,21.4612,-71.1419,71.6,88,75,20.71,TC,2021-03-11 06:41:35
Flin Flon,54.7682,-101.865,-0.22,93,49,6.11,CA,2021-03-11 06:41:37
City of San Pedro,14.35,121.0167,91.4,43,40,10.36,PH,2021-03-11 06:41:38
Ürümqi,43.801,87.6005,33.8,80,90,2.24,CN,2021-03-11 06:40:01
Wanning,18.8003,110.3967,78.76,74,13,9.13,CN,2021-03-11 06:41:40
Yulara,-25.2406,130.9889,93.2,36,23,13.8,AU,2021-03-11 06:41:42
Ridgecrest,35.6225,-117.6709,42.8,56,40,19.57,US,2021-03-11 06:39:47
Mossamedes,-15.1961,12.1522,71.6,83,75,1.9,AO,2021-03-11 06:41:45
Caldwell,43.6629,-116.6874,36.0,64,1,5.75,US,2021-03-11 06:41:46
Popondetta,-8.7537,148.2534,84.61,65,68,3.83,PG,2021-03-11 06:41:47
San Quintín,30.4833,-115.95,54.45,73,1,7.96,MX,2021-03-11 06:41:48
Catuday,16.2923,119.8062,81.73,65,0,15.57,PH,2021-03-11 06:41:50
Buenos Aires,-34.6132,-58.3772,75.2,64,0,9.22,AR,2021-03-11 06:39:11
Xiangfan,32.0422,112.1448,63.66,50,10,3.42,CN,2021-03-11 06:41:52
La Primavera,5.4906,-70.4092,76.66,60,100,4.45,CO,2021-03-11 06:41:53
Wahiawā,21.5028,-158.0236,71.01,100,90,5.75,US,2021-03-11 06:41:55
Seoul,37.5683,126.9778,64.4,33,100,10.36,KR,2021-03-11 06:41:56
The Valley,18.217,-63.0578,77.0,69,20,12.66,AI,2021-03-11 06:41:57
Lixouri,38.2019,20.4314,50.0,87,75,20.71,GR,2021-03-11 06:41:59
Ilulissat,69.2167,-51.1,15.8,73,90,1.92,GL,2021-03-11 06:42:01
Cayenne,4.9333,-52.3333,80.01,94,90,11.77,GF,2021-03-11 06:42:03
Saint George,37.1041,-113.5841,42.01,87,90,6.91,US,2021-03-11 06:40:43
Sayyan,15.1718,44.3244,64.8,23,0,6.91,YE,2021-03-11 06:42:05
Aykhal,66.0,111.5,-4.45,84,0,20.94,RU,2021-03-11 06:42:06
Adrar,20.5022,-10.0711,59.99,36,0,15.97,MR,2021-03-11 06:42:08
Xining,36.6167,101.7667,57.04,25,0,1.45,CN,2021-03-11 06:42:09
Ishigaki,24.3448,124.1572,75.2,69,40,11.5,JP,2021-03-11 06:42:10
Saint-Augustin,51.226,-58.6502,29.86,95,100,21.61,CA,2021-03-11 06:42:11
Olafsvik,64.8945,-23.7142,25.43,89,89,21.85,IS,2021-03-11 06:42:13
Lánycsók,46.0054,18.6253,32.0,64,0,4.61,HU,2021-03-11 06:42:14
Laishevo,55.4046,49.5504,-0.4,71,40,13.42,RU,2021-03-11 06:42:15
